
@SIC,,GET,DATA.DEEP,OK,1.06*14
$GPGGA,083429.20,0043.5506375,S,00847.5925259,E,4,28,0.5,3.2626,M,0.000,M,1.2,0004*59
$GPHDT,99.0266,T*37
@SIC,,GET,DATA.DEEP,OK,1.15*16
$GPGGA,083429.40,0043.5506695,S,00847.5927309,E,4,28,0.5,3.2656,M,0.000,M,1.4,0004*53
@SIC,,GET,DATA.DEEP,OK,1.12*11
$GPGGA,083429.60,0043.5507044,S,00847.5929344,E,4,28,0.5,3.3019,M,0.000,M,1.6,0004*53
@SIC,,GET,DATA.DEEP,OK,1.13*10
@SIC,,GET,DATA.DEEP,OK,1.12*11
$GPGGA,083429.80,0043.5507390,S,00847.5931410,E,4,28,0.5,3.3060,M,0.000,M,1.8,0004*58
@SIC,,GET,DATA.DEEP,OK,1.13*10
$GPGGA,083430.00,0043.5507715,S,00847.5933497,E,4,28,0.5,3.3077,M,0.000,M,2.0,0004*51
$GPZDA,083430.00,21,04,2026,,*6B
@SIC,,GET,DATA.DEEP,OK,1.11*12
@SIC,,GET,DATA.DEEP,OK,1.12*11
$GPGGA,083430.20,0043.5507959,S,00847.5935554,E,4,28,0.5,3.3059,M,0.000,M,2.2,0004*53
@SIC,,GET,DATA.DEEP,OK,1.16*15
$GPGGA,083430.40,0043.5508227,S,00847.5937582,E,4,28,0.5,3.3136,M,0.000,M,2.4,0004*5F
@SIC,,GET,DATA.DEEP,OK,1.21*11
@SIC,,GET,DATA.DEEP,OK,1.15*16
$GPGGA,083430.60,0043.5508474,S,00847.5939716,E,4,28,0.5,3.3222,M,0.000,M,2.6,0004*58
@SIC,,GET,DATA.DEEP,OK,1.12*11
$GPGGA,083430.80,0043.5508775,S,00847.5941902,E,4,28,0.5,3.3164,M,0.000,M,2.8,0004*5F
@SIC,,GET,DATA.DEEP,OK,1.25*15
@SIC,,GET,DATA.DEEP,OK,0.96*1c
$GPGGA,083431.00,0043.5509041,S,00847.5943937,E,4,28,0.5,3.3140,M,0.000,M,3.0,0004*5C
$GPZDA,083431.00,21,04,2026,,*6A
@SIC,,GET,DATA.DEEP,OK,1.15*16
@SIC,,GET,DATA.DEEP,OK,1.15*16
$GPGGA,083431.20,0043.5512910,S,00847.5950140,E,4,28,0.5,1.9284,M,0.000,M,3.2,0004*52
@SIC,,GET,DATA.DEEP,OK,1.15*16
@SIC,,GET,DATA.DEEP,OK,1.13*10
@SIC,,GET,DATA.DEEP,OK,1.09*1b
@SIC,,GET,DATA.DEEP,OK,1.11*12
@SIC,,GET,DATA.DEEP,OK,1.08*1a
@SIC,,GET,DATA.DEEP,OK,1.09*1b
@SIC,,GET,DATA.DEEP,OK,1.08*1a
@SIC,,GET,DATA.DEEP,OK,1.06*14
@SIC,,GET,DATA.DEEP,OK,1.08*1a
@SIC,,GET,DATA.DEEP,OK,1.15*16
@SIC,,GET,DATA.DEEP,OK,1.12*11
@SIC,,GET,DATA.DEEP,OK,1.12*11
@SIC,,GET,DATA.DEEP,OK,1.08*1a
$GPGGA,083436.20,0043.5514653,S,00847.5999995,E,4,28,0.5,1.9552,M,0.000,M,8.2,0004*59
$GPHDT,87.8590,T*3E
$GPZDA,083435.00,21,04,2026,,*6E
@SIC,,GET,DATA.DEEP,OK,1.05*17
$GPGGA,083436.40,0043.5514606,S,00847.6002019,E,4,28,0.5,1.9463,M,0.000,M,8.4,0004*5F
@SIC,,GET,DATA.DEEP,OK,1.06*14
$GPGGA,083436.60,0043.5514595,S,00847.6003947,E,4,28,0.5,1.9467,M,0.000,M,8.6,0004*51
@SIC,,GET,DATA.DEEP,OK,1.11*12
@SIC,,GET,DATA.DEEP,OK,1.15*16
$GPGGA,083436.80,0043.5514673,S,00847.6005955,E,4,28,0.5,2.0131,M,0.000,M,8.8,0004*53
@SIC,,GET,DATA.DEEP,OK,1.13*10
$GPGGA,083437.00,0043.5514726,S,00847.6008091,E,4,28,0.5,2.0076,M,0.000,M,9.0,0004*5C
$GPZDA,083437.00,21,04,2026,,*6C
@SIC,,GET,DATA.DEEP,OK,1.12*11
@SIC,,GET,DATA.DEEP,OK,1.11*12
$GPGGA,083437.20,0043.5514760,S,00847.6010244,E,4,28,0.5,1.9929,M,0.000,M,9.2,0004*54
@SIC,,GET,DATA.DEEP,OK,1.06*14
$GPGGA,083437.40,0043.5514732,S,00847.6012312,E,4,28,0.5,1.9296,M,0.000,M,0.4,0004*55
@SIC,,GET,DATA.DEEP,OK,1.05*17
@SIC,,GET,DATA.DEEP,OK,1.08*1a
$GPGGA,083437.60,0043.5514734,S,00847.6014311,E,4,28,0.5,1.9279,M,0.000,M,0.6,0004*57
@SIC,,GET,DATA.DEEP,OK,1.09*1b
$GPGGA,083437.80,0043.5514777,S,00847.6016383,E,4,28,0.5,1.9333,M,0.000,M,0.8,0004*56
@SIC,,GET,DATA.DEEP,OK,1.11*12
@SIC,,GET,DATA.DEEP,OK,1.13*10
$GPGGA,083438.00,0043.5514854,S,00847.6018500,E,4,28,0.5,1.9414,M,0.000,M,1.0,0004*57
$GPZDA,083438.00,21,04,2026,,*63
@SIC,,GET,DATA.DEEP,OK,1.08*1a
@SIC,,GET,DATA.DEEP,OK,1.09*1b
$GPGGA,083438.20,0043.5514975,S,00847.6020554,E,4,28,0.5,1.9425,M,0.000,M,1.2,0004*5D
@SIC,,GET,DATA.DEEP,OK,1.13*10
$GPGGA,083438.40,0043.5515129,S,00847.6022592,E,4,28,0.5,1.9460,M,0.000,M,1.4,0004*54
@SIC,,GET,DATA.DEEP,OK,1.13*10
$GPGGA,083438.60,0043.5515284,S,00847.6024669,E,4,28,0.5,1.9527,M,0.000,M,1.6,0004*53
@SIC,,GET,DATA.DEEP,OK,1.12*11
@SIC,,GET,DATA.DEEP,OK,1.12*11
$GPGGA,083438.80,0043.5515432,S,00847.6026820,E,4,28,0.5,1.9523,M,0.000,M,1.8,0004*5D
@SIC,,GET,DATA.DEEP,OK,1.08*1a
$GPGGA,083439.00,0043.5515526,S,00847.6028871,E,4,28,0.5,1.9485,M,0.000,M,2.0,0004*5C
@SIC,,GET,DATA.DEEP,OK,1.13*10
$GPGGA,083439.20,0043.5515571,S,00847.6030832,E,4,28,0.5,1.9862,M,0.000,M,2.2,0004*55
$GPHDT,91.4927,T*35
$GPZDA,083439.00,21,04,2026,,*62
@SIC,,GET,DATA.DEEP,OK,1.13*10
@SIC,,GET,DATA.DEEP,OK,1.13*10
$GPGGA,083439.40,0043.5515582,S,00847.6032950,E,4,28,0.5,1.9944,M,0.000,M,2.4,0004*5B
@SIC,,GET,DATA.DEEP,OK,1.12*11
$GPGGA,083439.60,0043.5515563,S,00847.6035055,E,4,28,0.5,1.9865,M,0.000,M,2.6,0004*5D
@SIC,,GET,DATA.DEEP,OK,1.09*1b
@SIC,,GET,DATA.DEEP,OK,1.06*14
$GPGGA,083439.80,0043.5515580,S,00847.6037106,E,4,28,0.5,1.9817,M,0.000,M,2.8,0004*50
@SIC,,GET,DATA.DEEP,OK,1.09*1b
$GPGGA,083440.00,0043.5515575,S,00847.6039081,E,4,28,0.5,1.9930,M,0.000,M,3.0,0004*51
$GPZDA,083440.00,21,04,2026,,*6C
@SIC,,GET,DATA.DEEP,OK,1.12*11
@SIC,,GET,DATA.DEEP,OK,1.12*11
@SIC,,GET,DATA.DEEP,OK,1.12*11
$GPGGA,083440.20,0043.5515616,S,00847.6041117,E,4,28,0.5,2.0089,M,0.000,M,3.2,0004*57
@SIC,,GET,DATA.DEEP,OK,1.11*12
@SIC,,GET,DATA.DEEP,OK,1.06*14
@SIC,,GET,DATA.DEEP,OK,1.11*12
@SIC,,GET,DATA.DEEP,OK,1.21*11
@SIC,,GET,DATA.DEEP,OK,1.15*16
@SIC,,GET,DATA.DEEP,OK,1.13*10
@SIC,,GET,DATA.DEEP,OK,1.16*15
@SIC,,GET,DATA.DEEP,OK,1.15*16
@SIC,,GET,DATA.DEEP,OK,1.15*16
@SIC,,GET,DATA.DEEP,OK,1.15*16
@SIC,,GET,DATA.DEEP,OK,1.15*16
@SIC,,GET,DATA.DEEP,OK,1.15*16
@SIC,,GET,DATA.DEEP,OK,1.15*16
$GPGGA,083445.20,0043.5519168,S,00847.6094848,E,4,28,0.5,1.9863,M,0.000,M,8.2,0004*56
$GPZDA,083444.00,21,04,2026,,*68
@SIC,,GET,DATA.DEEP,OK,1.27*17
$GPGGA,083445.40,0043.5519254,S,00847.6097024,E,4,28,0.5,1.9958,M,0.000,M,8.4,0004*52
@SIC,,GET,DATA.DEEP,OK,1.22*12
$GPGGA,083445.60,0043.5519395,S,00847.6099211,E,4,28,0.5,1.9563,M,0.000,M,8.6,0004*50
@SIC,,GET,DATA.DEEP,OK,1.21*11
$GPGGA,083445.80,0043.5519559,S,00847.6101264,E,4,28,0.5,1.9394,M,0.000,M,8.8,0004*5A
@SIC,,GET,DATA.DEEP,OK,1.25*15
@SIC,,GET,DATA.DEEP,OK,1.28*18
$GPGGA,083446.00,0043.5519719,S,00847.6103335,E,4,28,0.5,1.9495,M,0.000,M,9.0,0004*5F
@SIC,,GET,DATA.DEEP,OK,1.30*11
$GPGGA,083446.20,0043.5519755,S,00847.6105437,E,4,28,0.5,1.9549,M,0.000,M,9.2,0004*54
$GPHDT,92.5616,T*3A
$GPZDA,083446.00,21,04,2026,,*6A
@SIC,,GET,DATA.DEEP,OK,1.30*11
@SIC,,GET,DATA.DEEP,OK,1.25*15
$GPGGA,083446.40,0043.5519870,S,00847.6107582,E,4,28,0.5,1.9461,M,0.000,M,0.4,0004*53
@SIC,,GET,DATA.DEEP,OK,1.28*18
$GPGGA,083446.60,0043.5519957,S,00847.6109828,E,4,28,0.5,1.9330,M,0.000,M,0.6,0004*57
@SIC,,GET,DATA.DEEP,OK,1.21*11
@SIC,,GET,DATA.DEEP,OK,1.19*1a
$GPGGA,083446.80,0043.5520013,S,00847.6111975,E,4,28,0.5,1.9247,M,0.000,M,0.8,0004*55
@SIC,,GET,DATA.DEEP,OK,1.25*15
$GPGGA,083447.00,0043.5520095,S,00847.6113972,E,4,28,0.5,1.9645,M,0.000,M,1.0,0004*58
$GPZDA,083447.00,21,04,2026,,*6B
@SIC,,GET,DATA.DEEP,OK,1.31*10
@SIC,,GET,DATA.DEEP,OK,1.33*12
$GPGGA,083447.20,0043.5519303,S,00847.6117267,E,4,28,0.5,2.0217,M,0.000,M,1.2,0004*5C
@SIC,,GET,DATA.DEEP,OK,1.31*10
$GPGGA,083447.40,0043.5519448,S,00847.6119433,E,4,28,0.5,1.9982,M,0.000,M,1.4,0004*50
@SIC,,GET,DATA.DEEP,OK,1.30*11
@SIC,,GET,DATA.DEEP,OK,1.15*16
$GPGGA,083447.60,0043.5519615,S,00847.6121543,E,4,28,0.5,1.9490,M,0.@SIC,,GET,DATA.DEEP,OK,0.42*15
000,M,1.6,0004*59
@SIC,,GET,DATA.DEEP,OK,1.13*10
$GPGGA,083447.80,0043.5519717,S,00847.6123638,E,4,28,0.5,1.9479,M,0.000,M,1.8,0004*50
@SIC,,GET,DATA.DEEP,OK,1.16*15
@SIC,,GET,DATA.DEEP,OK,1.13*10
$GPGGA,083448.00,0043.5519813,S,00847.6125794,E,4,28,0.5,1.9503,M,0.000,M,2.0,0004*5A
@SIC,,GET,DATA.DEEP,OK,1.18*1b
$GPGGA,083448.20,0043.5519896,S,00847.6128056,E,4,28,0.5,1.9553,M,0.000,M,2.2,0004*56
$GPHDT,91.8366,T*36
$GPZDA,083448.00,21,04,2026,,*64
@SIC,,GET,DATA.DEEP,OK,1.13*10
@SIC,,GET,DATA.DEEP,OK,1.19*1a
$GPGGA,083448.40,0043.5519969,S,00847.6130311,E,4,28,0.5,1.9556,M,0.000,M,2.4,0004*5B
@SIC,,GET,DATA.DEEP,OK,1.12*11
$GPGGA,083448.60,0043.5520067,S,00847.6132520,E,4,28,0.5,1.9562,M,0.000,M,2.6,0004*57
@SIC,,GET,DATA.DEEP,OK,1.19*1a
@SIC,,GET,DATA.DEEP,OK,1.11*12
$GPGGA,083448.80,0043.5520110,S,00847.6134690,E,4,28,0.5,1.9625,M,0.000,M,2.8,0004*58
@SIC,,GET,DATA.DEEP,OK,1.15*16
$GPGGA,083449.00,0043.5520114,S,00847.6136855,E,4,28,0.5,1.9641,M,0.000,M,3.0,0004*5B
@SIC,,GET,DATA.DEEP,OK,1.13*10
@SIC,,GET,DATA.DEEP,OK,1.24*14
$GPGGA,083449.20,0043.5520118,S,00847.6138963,E,4,28,0.5,1.9643,M,0.000,M,3.2,0004*5F
$GPHDT,92.5766,T*3C
$GPZDA,083449.00,21,04,2026,,*65
@SIC,,GET,DATA.DEEP,OK,1.24*14
@SIC,,GET,DATA.DEEP,OK,1.28*18
@SIC,,GET,DATA.DEEP,OK,1.27*17
@SIC,,GET,DATA.DEEP,OK,1.27*17
@SIC,,GET,DATA.DEEP,OK,1.30*11
@SIC,,GET,DATA.DEEP,OK,1.36*17
@SIC,,GET,DATA.DEEP,OK,1.37*16
@SIC,,GET,DATA.DEEP,OK,1.39*18
@SIC,,GET,DATA.DEEP,OK,1.33*12
@SIC,,GET,DATA.DEEP,OK,1.31*10
@SIC,,GET,DATA.DEEP,OK,1.30*11
@SIC,,GET,DATA.DEEP,OK,1.19*1a
@SIC,,GET,DATA.DEEP,OK,1.31*10
$GPGGA,083454.20,0043.5523405,S,00847.6191341,E,4,28,0.5,1.9471,M,0.000,M,8.2,0004*58
$GPHDT,89.9693,T*31
$GPZDA,083453.00,21,04,2026,,*6E
$GPGGA,083454.40,0043.5523331,S,00847.6193508,E,4,28,0.5,1.9336,M,0.000,M,8.4,0004*55
@SIC,,GET,DATA.DEEP,OK,1.13*10
@SIC,,GET,DATA.DEEP,OK,1.55*12
$GPGGA,083454.60,0043.5523358,S,00847.6195570,E,4,28,0.5,1.9305,M,0.000,M,8.6,0004*53
@SIC,,GET,DATA.DEEP,OK,1.48*1e
$GPGGA,083454.80,0043.5523412,S,00847.6197623,E,4,28,0.5,1.9411,M,0.000,M,8.8,0004*5F
@SIC,,GET,DATA.DEEP,OK,1.50*17
@SIC,,GET,DATA.DEEP,OK,1.49*1f
$GPGGA,083455.00,0043.5523477,S,00847.6199693,E,4,28,0.5,1.9537,M,0.000,M,9.0,0004*5C
$GPZDA,083455.00,21,04,2026,,*68
@SIC,,GET,DATA.DEEP,OK,1.42*14
$GPGGA,083455.20,0043.5523108,S,00847.6201259,E,4,28,0.5,2.1069,M,0.000,M,9.2,0004*54
@SIC,,GET,DATA.DEEP,OK,1.49*1f
$GPGGA,083455.40,0043.5523158,S,00847.6203320,E,4,28,0.5,2.1063,M,0.000,M,0.4,0004*5F
@SIC,,GET,DATA.DEEP,OK,1.48*1e
@SIC,,GET,DATA.DEEP,OK,1.45*13
$GPGGA,083455.60,0043.5523164,S,00847.6205528,E,4,28,0.5,2.0983,M,0.000,M,0.6,0004*5E
@SIC,,GET,DATA.DEEP,OK,1.43*15
$GPGGA,083455.80,0043.5523142,S,00847.6207662,E,4,28,0.5,2.0815,M,0.000,M,0.8,0004*5B
@SIC,,GET,DATA.DEEP,OK,1.40*16
@SIC,,GET,DATA.DEEP,OK,1.40*16
$GPGGA,083456.00,0043.5523156,S,00847.6209661,E,4,28,0.5,2.0883,M,0.000,M,1.0,0004*5E
@SIC,,GET,DATA.DEEP,OK,1.48*1e
@SIC,,GET,DATA.DEEP,OK,1.50*17
$GPGGA,083456.20,0043.5523207,S,00847.6211711,E,4,28,0.5,2.1407,M,0.000,M,1.2,0004*57
$GPHDT,91.5401,T*3D
$GPZDA,083456.00,21,04,2026,,*6B
@SIC,,GET,DATA.DEEP,OK,1.45*13
$GPGGA,083456.40,0043.5523215,S,00847.6213916,E,4,28,0.5,2.1406,M,0.000,M,1.4,0004*5E
@SIC,,GET,DATA.DEEP,OK,1.43*15
$GPGGA,083456.60,0043.5523189,S,00847.6216102,E,4,28,0.5,2.0634,M,0.000,M,1.6,0004*52
@SIC,,GET,DATA.DEEP,OK,1.40*16
@SIC,,GET,DATA.DEEP,OK,1.39*18
$GPGGA,083456.80,0043.5523256,S,00847.6218285,E,4,28,0.5,2.0483,M,0.000,M,1.8,0004*5F
@SIC,,GET,DATA.DEEP,OK,1.36*17
$GPGGA,083457.00,0043.5523300,S,00847.6220320,E,4,28,0.5,2.0564,M,0.000,M,2.0,0004*52
$GPZDA,083457.00,21,04,2026,,*6A
@SIC,,GET,DATA.DEEP,OK,1.42*14
@SIC,,GET,DATA.DEEP,OK,1.36*17
$GPGGA,083457.20,0043.5523365,S,00847.6222379,E,4,28,0.5,2.0702,M,0.000,M,2.2,0004*5D
@SIC,,GET,DATA.DEEP,OK,1.40*16
$GPGGA,083457.40,0043.5523464,S,00847.6224538,E,4,28,0.5,2.0623,M,0.000,M,2.4,0004*5C
@SIC,,GET,DATA.DEEP,OK,1.36*17
@SIC,,GET,DATA.DEEP,OK,1.37*16
$GPGGA,083457.60,0043.5523488,S,00847.6226587,E,4,28,0.5,1.9955,M,0.000,M,2.6,0004*5C
@SIC,,GET,DATA.DEEP,OK,1.45*13
$GPGGA,083457.80,0043.5523510,S,00847.6228565,E,4,28,0.5,2.0003,M,0.000,M,2.8,0004*5E
@SIC,,GET,DATA.DEEP,OK,1.33*12
@SIC,,GET,DATA.DEEP,OK,1.36*17
$GPGGA,083458.00,0043.5523484,S,00847.6230596,E,4,28,0.5,2.0110,M,0.000,M,3.0,0004*5A
$GPZDA,083458.00,21,04,2026,,*65
@SIC,,GET,DATA.DEEP,OK,1.39*18
@SIC,,GET,DATA.DEEP,OK,1.37*16
$GPGGA,083458.20,0043.5523503,S,00847.6232786,E,4,28,0.5,2.0103,M,0.000,M,3.2,0004*57
@SIC,,GET,DATA.DEEP,OK,1.33*12
@SIC,,GET,DATA.DEEP,OK,1.31*10
@SIC,,GET,DATA.DEEP,OK,1.39*18
@SIC,,GET,DATA.DEEP,OK,1.39*18
@SIC,,GET,DATA.DEEP,OK,1.37*16
@SIC,,GET,DATA.DEEP,OK,1.36*17
@SIC,,GET,DATA.DEEP,OK,1.37*16
@SIC,,GET,DATA.DEEP,OK,1.37*16
@SIC,,GET,DATA.DEEP,OK,1.37*16
@SIC,,GET,DATA.DEEP,OK,1.33*12
@SIC,,GET,DATA.DEEP,OK,1.28*18
@SIC,,GET,DATA.DEEP,OK,1.30*11
@SIC,,GET,DATA.DEEP,OK,1.33*12
$GPGGA,083503.20,0043.5526213,S,00847.6287208,E,4,28,0.5,1.9864,M,0.000,M,8.2,0004*5F
$GPHDT,94.2197,T*35
$GPZDA,083502.00,21,04,2026,,*6B
@SIC,,GET,DATA.DEEP,OK,1.22*12
$GPGGA,083503.40,0043.5526436,S,00847.6289380,E,4,28,0.5,1.9751,M,0.000,M,8.4,0004*58
@SIC,,GET,DATA.DEEP,OK,1.24*14
$GPGGA,083503.60,0043.5526650,S,00847.6291590,E,4,28,0.5,1.9724,M,0.000,M,8.6,0004*56
@SIC,,GET,DATA.DEEP,OK,1.24*14
@SIC,,GET,DATA.DEEP,OK,1.24*14
$GPGGA,083503.80,0043.5526794,S,00847.6293756,E,4,28,0.5,1.9688,M,0.000,M,8.8,0004*52
@SIC,,GET,DATA.DEEP,OK,1.27*17
$GPGGA,083504.00,0043.5526960,S,00847.6295829,E,4,28,0.5,1.9740,M,0.000,M,9.0,0004*55
$GPZDA,083504.00,21,04,2026,,*6D
@SIC,,GET,DATA.DEEP,OK,1.30*11
@SIC,,GET,DATA.DEEP,OK,1.31*10
$GPGGA,083504.20,0043.5527134,S,00847.6297911,E,4,28,0.5,1.9850,M,0.000,M,9.2,0004*5B
@SIC,,GET,DATA.DEEP,OK,1.33*12
$GPGGA,083504.40,0043.5527300,S,00847.6300061,E,4,28,0.5,1.9903,M,0.000,M,0.4,0004*51
@SIC,,GET,DATA.DEEP,OK,1.31*10
@SIC,,GET,DATA.DEEP,OK,1.34*15
$GPGGA,083504.60,0043.5527422,S,00847.6302294,E,4,28,0.5,1.9804,M,0.000,M,0.6,0004*5A
@SIC,,GET,DATA.DEEP,OK,1.24*14
$GPGGA,083504.80,0043.5527448,S,00847.6304389,E,4,28,0.5,1.9428,M,0.000,M,0.8,0004*5F
@SIC,,GET,DATA.DEEP,OK,1.22*12
@SIC,,GET,DATA.DEEP,OK,1.28*18
$GPGGA,083505.00,0043.5527531,S,00847.6306387,E,4,28,0.5,1.9486,M,0.000,M,1.0,0004*58
$GPZDA,083505.00,21,04,2026,,*6C
@SIC,,GET,DATA.DEEP,OK,1.33*12
@SIC,,GET,DATA.DEEP,OK,1.31*10
$GPGGA,083505.20,0043.5527563,S,00847.6308420,E,4,28,0.5,1.9626,M,0.000,M,1.2,0004*53
@SIC,,GET,DATA.DEEP,OK,1.31*10
$GPGGA,083505.40,0043.5527623,S,00847.6310462,E,4,28,0.5,1.9628,M,0.000,M,1.4,0004*55
@SIC,,GET,DATA.DEEP,OK,1.30*11
$GPGGA,083505.60,0043.5527759,S,00847.6312473,E,4,28,0.5,1.9494,M,0.000,M,1.6,0004*5E
@SIC,,GET,DATA.DEEP,OK,1.33*12
@SIC,,GET,DATA.DEEP,OK,1.28*18
$GPGGA,083505.80,0043.5527787,S,00847.6314443,E,4,28,0.5,1.9483,M,0.000,M,1.8,0004*5E
@SIC,,GET,DATA.DEEP,OK,1.28*18
$GPGGA,083506.00,0043.5527816,S,00847.6316529,E,4,28,0.5,1.9507,M,0.000,M,2.0,0004*5B
$GPZDA,083506.00,21,04,2026,,*6F
@SIC,,GET,DATA.DEEP,OK,1.28*18
$GPGGA,083506.20,0043.5527835,S,00847.6318602,E,4,28,0.5,1.9468,M,0.000,M,2.2,0004*56
@SIC,,GET,DATA.DEEP,OK,1.27*17
@SIC,,GET,DATA.DEEP,OK,1.27*17
$GPGGA,083506.40,0043.5527870,S,00847.6320651,E,4,28,0.5,1.9455,M,0.000,M,2.4,0004*54
@SIC,,GET,DATA.DEEP,OK,1.27*17
$GPGGA,083506.60,0043.5527868,S,00847.6322779,E,4,28,0.5,1.9469,M,0.000,M,2.6,0004*5B
@SIC,,GET,DATA.DEEP,OK,1.30*11
@SIC,,GET,DATA.DEEP,OK,1.28*18
$GPGGA,083506.80,0043.5527889,S,00847.6324918,E,4,28,0.5,1.9479,M,0.000,M,2.8,0004*5A
@SIC,,GET,DATA.DEEP,OK,1.30*11
$GPGGA,083507.00,0043.5527943,S,00847.6327065,E,4,28,0.5,1.9490,M,0.000,M,3.0,0004*5A
$GPZDA,083507.00,21,04,2026,,*6E
@SIC,,GET,DATA.DEEP,OK,1.30*11
@SIC,,GET,DATA.DEEP,OK,1.31*10
@SIC,,GET,DATA.DEEP,OK,1.30*11
$GPGGA,083507.20,0043.5527227,S,00847.6331280,E,4,28,0.5,1.9391,M,0.000,M,3.2,0004*5B
$GPHDT,94.5618,T*32
@SIC,,GET,DATA.DEEP,OK,1.28*18
@SIC,,GET,DATA.DEEP,OK,1.27*17
@SIC,,GET,DATA.DEEP,OK,1.27*17
@SIC,,GET,DATA.DEEP,OK,1.25*15
@SIC,,GET,DATA.DEEP,OK,1.27*17
@SIC,,GET,DATA.DEEP,OK,1.33*12
@SIC,,GET,DATA.DEEP,OK,1.33*12
@SIC,,GET,DATA.DEEP,OK,1.33*12
@SIC,,GET,DATA.DEEP,OK,1.34*15
@SIC,,GET,DATA.DEEP,OK,1.30*11
@SIC,,GET,DATA.DEEP,OK,1.25*15
@SIC,,GET,DATA.DEEP,OK,1.27*17
@SIC,,GET,DATA.DEEP,OK,1.28*18
$GPGGA,083512.20,0043.5531165,S,00847.6376224,E,4,28,0.5,2.0098,M,0.000,M,8.2,0004*5B
$GPHDT,99.8914,T*31
$GPZDA,083511.00,21,04,2026,,*69
@SIC,,GET,DATA.DEEP,OK,1.25*15
$GPGGA,083512.40,0043.5531575,S,00847.6377507,E,4,28,0.5,2.0073,M,0.000,M,8.4,0004*5C
@SIC,,GET,DATA.DEEP,OK,1.27*17
$GPGGA,083512.60,0043.5532075,S,00847.6378778,E,4,28,0.5,2.0061,M,0.000,M,8.6,0004*5C
@SIC,,GET,DATA.DEEP,OK,1.25*15
$GPGGA,083512.80,0043.5532600,S,00847.6379983,E,4,28,0.5,2.0089,M,0.000,M,8.8,0004*55
@SIC,,GET,DATA.DEEP,OK,1.27*17
@SIC,,GET,DATA.DEEP,OK,1.28*18
$GPGGA,083513.00,0043.5533176,S,00847.6381178,E,4,28,0.5,2.0094,M,0.000,M,9.0,0004*55
$GPZDA,083513.00,21,04,2026,,*6B
@SIC,,GET,DATA.DEEP,OK,1.28*18
$GPGGA,083513.20,0043.5533871,S,00847.6382294,E,4,28,0.5,2.0105,M,0.000,M,9.2,0004*50
@SIC,,GET,DATA.DEEP,OK,1.27*17
@SIC,,GET,DATA.DEEP,OK,1.25*15
$GPGGA,083513.40,0043.5534571,S,00847.6383475,E,4,28,0.5,2.0030,M,0.000,M,0.4,0004*5C
@SIC,,GET,DATA.DEEP,OK,1.25*15
$GPGGA,083513.60,0043.5535295,S,00847.6384558,E,4,28,0.5,1.9962,M,0.000,M,0.6,0004*5D
@SIC,,GET,DATA.DEEP,OK,1.21*11
@SIC,,GET,DATA.DEEP,OK,1.22*12
$GPGGA,083513.80,0043.5536065,S,00847.6385596,E,4,28,0.5,1.9695,M,0.000,M,0.8,0004*57
@SIC,,GET,DATA.DEEP,OK,1.24*14
$GPGGA,083514.00,0043.5536935,S,00847.6386583,E,4,28,0.5,1.9780,M,0.000,M,1.0,0004*5F
$GPZDA,083514.00,21,04,2026,,*6C
@SIC,,GET,DATA.DEEP,OK,1.24*14
@SIC,,GET,DATA.DEEP,OK,1.24*14
$GPGGA,083514.20,0043.5537859,S,00847.6387529,E,4,28,0.5,1.9842,M,0.000,M,1.2,0004*55
@SIC,,GET,DATA.DEEP,OK,1.24*14
$GPGGA,083514.40,0043.5538818,S,00847.6388410,E,4,28,0.5,1.9809,M,0.000,M,1.4,0004*54
@SIC,,GET,DATA.DEEP,OK,1.22*12
@SIC,,GET,DATA.DEEP,OK,1.22*12
$GPGGA,083514.60,0043.5539830,S,00847.6389201,E,4,28,0.5,1.9744,M,0.000,M,1.6,0004*5E
@SIC,,GET,DATA.DEEP,OK,1.24*14
$GPGGA,083514.80,0043.5540870,S,00847.6389955,E,4,28,0.5,1.9782,M,0.000,M,1.8,0004*54
@SIC,,GET,DATA.DEEP,OK,1.25*15
@SIC,,GET,DATA.DEEP,OK,1.25*15
$GPGGA,083515.00,0043.5542001,S,00847.6390597,E,4,28,0.5,1.9812,M,0.000,M,2.0,0004*56
$GPZDA,083515.00,21,04,2026,,*6D
@SIC,,GET,DATA.DEEP,OK,1.25*15
$GPGGA,083515.20,0043.5542401,S,00847.6391737,E,4,28,0.5,1.9474,M,0.000,M,2.2,0004*57
@SIC,,GET,DATA.DEEP,OK,1.24*14
@SIC,,GET,DATA.DEEP,OK,1.24*14
$GPGGA,083515.40,0043.5543444,S,00847.6392238,E,4,28,0.5,1.9322,M,0.000,M,2.4,0004*5A
@SIC,,GET,DATA.DEEP,OK,1.27*17
$GPGGA,083515.60,0043.5544584,S,00847.6392644,E,4,28,0.5,1.9315,M,0.000,M,2.6,0004*5B
@SIC,,GET,DATA.DEEP,OK,1.25*15
@SIC,,GET,DATA.DEEP,OK,1.24*14
$GPGGA,083515.80,0043.5545773,S,00847.6393029,E,4,28,0.5,1.9274,M,0.000,M,2.8,0004*5A
@SIC,,GET,DATA.DEEP,OK,1.25*15
$GPGGA,083516.00,0043.5546919,S,00847.6393269,E,4,28,0.5,1.9234,M,0.000,M,3.0,0004*5B
@SIC,,GET,DATA.DEEP,OK,1.24*14
@SIC,,GET,DATA.DEEP,OK,1.24*14
$GPGGA,083516.20,0043.5548011,S,00847.6393406,E,4,28,0.5,1.9217,M,0.000,M,3.2,0004*5A
$GPHDT,179.9792,T*0F
$GPZDA,083516.00,21,04,2026,,*6E
@SIC,,GET,DATA.DEEP,OK,1.24*14
@SIC,,GET,DATA.DEEP,OK,1.24*14
@SIC,,GET,DATA.DEEP,OK,1.24*14
@SIC,,GET,DATA.DEEP,OK,1.24*14
@SIC,,GET,DATA.DEEP,OK,1.25*15
@SIC,,GET,DATA.DEEP,OK,1.25*15
@SIC,,GET,DATA.DEEP,OK,1.27*17
@SIC,,GET,DATA.DEEP,OK,1.27*17
@SIC,,GET,DATA.DEEP,OK,1.27*17
@SIC,,GET,DATA.DEEP,OK,1.27*17
@SIC,,GET,DATA.DEEP,OK,1.25*15
@SIC,,GET,DATA.DEEP,OK,1.24*14
@SIC,,GET,DATA.DEEP,OK,1.24*14
$GPGGA,083521.20,0043.5576895,S,00847.6377746,E,4,28,0.5,1.8893,M,0.000,M,8.2,0004*56
$GPZDA,083520.00,21,04,2026,,*6B
$GPGGA,083521.40,0043.5577482,S,00847.6376774,E,4,28,0.5,1.8901,M,0.000,M,8.4,0004*57
@SIC,,GET,DATA.DEEP,OK,1.19*1a
@SIC,,GET,DATA.DEEP,OK,1.18*1b
$GPGGA,083521.60,0043.5578025,S,00847.6375814,E,4,28,0.5,1.8862,M,0.000,M,8.6,0004*5F
@SIC,,GET,DATA.DEEP,OK,1.19*1a
$GPGGA,083521.80,0043.5578479,S,00847.6374854,E,4,28,0.5,1.8835,M,0.000,M,8.8,0004*55
@SIC,,GET,DATA.DEEP,OK,1.24*14
@SIC,,GET,DATA.DEEP,OK,1.19*1a
$GPGGA,083522.00,0043.5578895,S,00847.6373907,E,4,28,0.5,1.8797,M,0.000,M,9.0,0004*5E
$GPZDA,083522.00,21,04,2026,,*69
@SIC,,GET,DATA.DEEP,OK,1.18*1b
$GPGGA,083522.20,0043.5579241,S,00847.6372916,E,4,28,0.5,1.8799,M,0.000,M,9.2,0004*53
@SIC,,GET,DATA.DEEP,OK,1.19*1a
@SIC,,GET,DATA.DEEP,OK,1.19*1a
$GPGGA,083522.40,0043.5579433,S,00847.6371915,E,4,28,0.5,1.8789,M,0.000,M,0.4,0004*58
@SIC,,GET,DATA.DEEP,OK,1.18*1b
$GPGGA,083522.60,0043.5579564,S,00847.6371017,E,4,28,0.5,1.8782,M,0.000,M,0.6,0004*5B
@SIC,,GET,DATA.DEEP,OK,1.19*1a
$GPGGA,083522.80,0043.5579669,S,00847.6370094,E,4,28,0.5,1.8834,M,0.000,M,0.8,0004*5D
@SIC,,GET,DATA.DEEP,OK,1.21*11
@SIC,,GET,DATA.DEEP,OK,1.21*11
$GPGGA,083523.00,0043.5579806,S,00847.6368980,E,4,28,0.5,1.8905,M,0.000,M,1.0,0004*5C
@SIC,,GET,DATA.DEEP,OK,1.21*11
@SIC,,GET,DATA.DEEP,OK,1.22*12
$GPGGA,083523.20,0043.5579933,S,00847.6367637,E,4,28,0.5,1.8895,M,0.000,M,1.2,0004*5F
$GPHDT,258.4690,T*01
@SIC,,GET,DATA.DEEP,OK,1.19*1a
$GPGGA,083523.40,0043.5580122,S,00847.6366237,E,4,28,0.5,1.8870,M,0.000,M,1.4,0004*5F
@SIC,,GET,DATA.DEEP,OK,1.24*14
$GPGGA,083523.60,0043.5580546,S,00847.6364781,E,4,28,0.5,1.8908,M,0.000,M,1.6,0004*5D
@SIC,,GET,DATA.DEEP,OK,1.25*15
@SIC,,GET,DATA.DEEP,OK,1.24*14
$GPGGA,083523.80,0043.5580979,S,00847.6363187,E,4,28,0.5,1.8830,M,0.000,M,1.8,0004*50
@SIC,,GET,DATA.DEEP,OK,1.22*12
$GPGGA,083524.00,0043.5581541,S,00847.6361615,E,4,28,0.5,1.8698,M,0.000,M,2.0,0004*50
$GPZDA,083524.00,21,04,2026,,*6F
@SIC,,GET,DATA.DEEP,OK,1.18*1b
@SIC,,GET,DATA.DEEP,OK,1.24*14
$GPGGA,083524.20,0043.5582525,S,00847.6360447,E,4,28,0.5,1.9737,M,0.000,M,2.2,0004*50
@SIC,,GET,DATA.DEEP,OK,1.24*14
$GPGGA,083524.40,0043.5583469,S,00847.6358988,E,4,28,0.5,1.9480,M,0.000,M,2.4,0004*52
@SIC,,GET,DATA.DEEP,OK,1.22*12
@SIC,,GET,DATA.DEEP,OK,1.18*1b
$GPGGA,083524.60,0043.5584527,S,00847.6357378,E,4,28,0.5,1.9429,M,0.000,M,2.6,0004*57
@SIC,,GET,DATA.DEEP,OK,1.18*1b
$GPGGA,083524.80,0043.5585801,S,00847.6355947,E,4,28,0.5,1.9383,M,0.000,M,2.8,0004*5C
@SIC,,GET,DATA.DEEP,OK,1.15*16
@SIC,,GET,DATA.DEEP,OK,1.16*15
$GPGGA,083525.00,0043.5587122,S,00847.6354694,E,4,28,0.5,1.9470,M,0.000,M,3.0,0004*5D
$GPZDA,083525.00,21,04,2026,,*6E
@SIC,,GET,DATA.DEEP,OK,1.19*1a
@SIC,,GET,DATA.DEEP,OK,1.18*1b
$GPGGA,083525.20,0043.5588456,S,00847.6353473,E,4,28,0.5,1.9504,M,0.000,M,3.2,0004*5A
@SIC,,GET,DATA.DEEP,OK,1.19*1a
@SIC,,GET,DATA.DEEP,OK,1.22*12
@SIC,,GET,DATA.DEEP,OK,1.33*12
@SIC,,GET,DATA.DEEP,OK,1.18*1b
@SIC,,GET,DATA.DEEP,OK,1.18*1b
@SIC,,GET,DATA.DEEP,OK,1.19*1a
@SIC,,GET,DATA.DEEP,OK,1.19*1a
@SIC,,GET,DATA.DEEP,OK,1.21*11
@SIC,,GET,DATA.DEEP,OK,1.21*11
@SIC,,GET,DATA.DEEP,OK,1.33*12
@SIC,,GET,DATA.DEEP,OK,1.24*14
@SIC,,GET,DATA.DEEP,OK,1.24*14
@SIC,,GET,DATA.DEEP,OK,1.22*12
$GPGGA,083530.20,0043.5625148,S,00847.6326967,E,4,28,0.5,1.9451,M,0.000,M,8.2,0004*50
$GPHDT,216.9158,T*05
$GPZDA,083529.00,21,04,2026,,*62
@SIC,,GET,DATA.DEEP,OK,1.21*11
$GPGGA,083530.40,0043.5626292,S,00847.6326088,E,4,28,0.5,1.9431,M,0.000,M,8.4,0004*59
@SIC,,GET,DATA.DEEP,OK,1.19*1a
$GPGGA,083530.60,0043.5627403,S,00847.6325273,E,4,28,0.5,1.9412,M,0.000,M,8.6,0004*52
@SIC,,GET,DATA.DEEP,OK,1.21*11
@SIC,,GET,DATA.DEEP,OK,1.19*1a
$GPGGA,083530.80,0043.5628398,S,00847.6324475,E,4,28,0.5,1.9401,M,0.000,M,8.8,0004*5B
@SIC,,GET,DATA.DEEP,OK,1.18*1b
$GPGGA,083531.00,0043.5629336,S,00847.6323765,E,4,28,0.5,1.9335,M,0.000,M,9.0,0004*5B
$GPZDA,083531.00,21,04,2026,,*6B
@SIC,,GET,DATA.DEEP,OK,1.16*15
@SIC,,GET,DATA.DEEP,OK,1.15*16
$GPGGA,083531.20,0043.5630224,S,00847.6323106,E,4,28,0.5,1.9246,M,0.000,M,9.2,0004*57
@SIC,,GET,DATA.DEEP,OK,1.15*16
$GPGGA,083531.40,0043.5631086,S,00847.6322493,E,4,28,0.5,1.9239,M,0.000,M,0.4,0004*55
@SIC,,GET,DATA.DEEP,OK,1.15*16
@SIC,,GET,DATA.DEEP,OK,1.13*10
$GPGGA,083531.60,0043.5632012,S,00847.6321825,E,4,28,0.5,1.9259,M,0.000,M,0.6,0004*5F
@SIC,,GET,DATA.DEEP,OK,1.15*16
$GPGGA,083531.80,0043.5632921,S,00847.6321021,E,4,28,0.5,1.9298,M,0.000,M,0.8,0004*57
@SIC,,GET,DATA.DEEP,OK,1.15*16
@SIC,,GET,DATA.DEEP,OK,1.15*16
$GPGGA,083532.00,0043.5633772,S,00847.6320079,E,4,28,0.5,1.9341,M,0.000,M,1.0,0004*55
@SIC,,GET,DATA.DEEP,OK,1.13*10
@SIC,,GET,DATA.DEEP,OK,1.18*1b
$GPGGA,083532.20,0043.5634599,S,00847.6319049,E,4,28,0.5,1.9375,M,0.000,M,1.2,0004*5B
$GPHDT,226.2835,T*0F
$GPZDA,083532.00,21,04,2026,,*68
@SIC,,GET,DATA.DEEP,OK,1.16*15
$GPGGA,083532.40,0043.5635481,S,00847.6318004,E,4,28,0.5,1.9418,M,0.000,M,1.4,0004*56
@SIC,,GET,DATA.DEEP,OK,1.21*11
$GPGGA,083532.60,0043.5636399,S,00847.6316979,E,4,28,0.5,1.9442,M,0.000,M,1.6,0004*59
@SIC,,GET,DATA.DEEP,OK,1.21*11
@SIC,,GET,DATA.DEEP,OK,1.22*12
$GPGGA,083532.80,0043.5637328,S,00847.6315977,E,4,28,0.5,1.9461,M,0.000,M,1.8,0004*5E
@SIC,,GET,DATA.DEEP,OK,1.21*11
$GPGGA,083533.00,0043.5638250,S,00847.6315023,E,4,28,0.5,1.9400,M,0.000,M,2.0,0004*52
$GPZDA,083533.00,21,04,2026,,*69
@SIC,,GET,DATA.DEEP,OK,1.22*12
@SIC,,GET,DATA.DEEP,OK,1.21*11
$GPGGA,083533.20,0043.5639106,S,00847.6314122,E,4,28,0.5,1.9347,M,0.000,M,2.2,0004*56
@SIC,,GET,DATA.DEEP,OK,1.19*1a
$GPGGA,083533.40,0043.5639920,S,00847.6313317,E,4,28,0.5,1.9273,M,0.000,M,2.4,0004*5F
@SIC,,GET,DATA.DEEP,OK,1.19*1a
$GPGGA,083533.60,0043.5640748,S,00847.6312650,E,4,28,0.5,1.9197,M,0.000,M,0.6,0004*5D
@SIC,,GET,DATA.DEEP,OK,1.22*12
@SIC,,GET,DATA.DEEP,OK,1.18*1b
$GPGGA,083533.80,0043.5641617,S,00847.6312093,E,4,28,0.5,1.9164,M,0.000,M,0.8,0004*52
@SIC,,GET,DATA.DEEP,OK,1.18*1b
$GPGGA,083534.00,0043.5642971,S,00847.6311678,E,4,28,0.5,1.9189,M,0.000,M,1.0,0004*5B
$GPZDA,083534.00,21,04,2026,,*6E
@SIC,,GET,DATA.DEEP,OK,1.16*15
@SIC,,GET,DATA.DEEP,OK,1.13*10
@SIC,,GET,DATA.DEEP,OK,1.13*10
$GPGGA,083534.20,0043.5643717,S,00847.6311069,E,4,28,0.5,1.8968,M,0.000,M,1.2,0004*54
$GPGGA,083534.40,0043.5644547,S,00847.6310439,E,4,28,0.5,1.8952,M,0.000,M,1.4,0004*5D
@SIC,,GET,DATA.DEEP,OK,1.13*10
@SIC,,GET,DATA.DEEP,OK,1.13*10
$GPGGA,083534.60,0043.5645370,S,00847.6309744,E,4,28,0.5,1.8973,M,0.000,M,1.6,0004*5C
@SIC,,GET,DATA.DEEP,OK,1.15*16
$GPGGA,083534.80,0043.5646233,S,00847.6309019,E,4,28,0.5,1.8981,M,0.000,M,1.8,0004*5B
@SIC,,GET,DATA.DEEP,OK,1.15*16
@SIC,,GET,DATA.DEEP,OK,1.16*15
$GPGGA,083535.00,0043.5647055,S,00847.6308240,E,4,28,0.5,1.9104,M,0.000,M,2.0,0004*51
@SIC,,GET,DATA.DEEP,OK,1.16*15
$GPGGA,083535.20,0043.5647895,S,00847.6307316,E,4,28,0.5,1.9188,M,0.000,M,2.2,0004*5C
$GPHDT,224.2978,T*05
$GPZDA,083535.00,21,04,2026,,*6F
@SIC,,GET,DATA.DEEP,OK,1.19*1a
@SIC,,GET,DATA.DEEP,OK,1.18*1b
$GPGGA,083535.40,0043.5648715,S,00847.6306459,E,4,28,0.5,1.9249,M,0.000,M,0.4,0004*55
@SIC,,GET,DATA.DEEP,OK,1.19*1a
$GPGGA,083535.60,0043.5649560,S,00847.6305586,E,4,28,0.5,1.9289,M,0.000,M,0.6,0004*58
@SIC,,GET,DATA.DEEP,OK,1.21*11
@SIC,,GET,DATA.DEEP,OK,1.21*11
$GPGGA,083535.80,0043.5650394,S,00847.6304713,E,4,28,0.5,1.9318,M,0.000,M,0.8,0004*5B
@SIC,,GET,DATA.DEEP,OK,1.22*12
$GPGGA,083536.00,0043.5651236,S,00847.6303831,E,4,28,0.5,1.9281,M,0.000,M,1.0,0004*58
@SIC,,GET,DATA.DEEP,OK,1.24*14
@SIC,,GET,DATA.DEEP,OK,1.22*12
$GPGGA,083536.20,0043.5652145,S,00847.6302923,E,4,28,0.5,1.9256,M,0.000,M,1.2,0004*55
$GPHDT,220.6583,T*0D
$GPZDA,083536.00,21,04,2026,,*6C
@SIC,,GET,DATA.DEEP,OK,1.22*12
$GPGGA,083536.40,0043.5653190,S,00847.6301902,E,4,28,0.5,1.9197,M,0.000,M,1.4,0004*52
@SIC,,GET,DATA.DEEP,OK,1.22*12
@SIC,,GET,DATA.DEEP,OK,1.22*12
$GPGGA,083536.60,0043.5654415,S,00847.6300829,E,4,28,0.5,1.9138,M,0.000,M,1.6,0004*51
@SIC,,GET,DATA.DEEP,OK,1.21*11
$GPGGA,083536.80,0043.5655778,S,00847.6299664,E,4,28,0.5,1.9037,M,0.000,M,1.8,0004*50
@SIC,,GET,DATA.DEEP,OK,1.22*12
@SIC,,GET,DATA.DEEP,OK,1.22*12
$GPGGA,083537.00,0043.5657225,S,00847.6298449,E,4,28,0.5,1.8974,M,0.000,M,2.0,0004*5E
@SIC,,GET,DATA.DEEP,OK,1.22*12
$GPGGA,083537.20,0043.5658651,S,00847.6297144,E,4,28,0.5,1.8898,M,0.000,M,2.2,0004*52
$GPHDT,225.1018,T*08
$GPZDA,083537.00,21,04,2026,,*6D
@SIC,,GET,DATA.DEEP,OK,1.22*12
@SIC,,GET,DATA.DEEP,OK,1.18*1b
$GPGGA,083537.40,0043.5660110,S,00847.6295810,E,4,28,0.5,1.8803,M,0.000,M,2.4,0004*53
@SIC,,GET,DATA.DEEP,OK,1.18*1b
$GPGGA,083537.60,0043.5661504,S,00847.6294448,E,4,28,0.5,1.8656,M,0.000,M,2.6,0004*5D
@SIC,,GET,DATA.DEEP,OK,1.16*15
@SIC,,GET,DATA.DEEP,OK,1.18*1b
$GPGGA,083537.80,0043.5662856,S,00847.6293080,E,4,28,0.5,1.8596,M,0.000,M,0.8,0004*5E
@SIC,,GET,DATA.DEEP,OK,1.18*1b
$GPGGA,083538.00,0043.5664113,S,00847.6291646,E,4,28,0.5,1.8614,M,0.000,M,1.0,0004*59
$GPZDA,083538.00,21,04,2026,,*62
@SIC,,GET,DATA.DEEP,OK,1.18*1b
@SIC,,GET,DATA.DEEP,OK,1.18*1b
$GPGGA,083538.20,0043.5665585,S,00847.6289887,E,4,28,0.5,1.9010,M,0.000,M,1.2,0004*5A
@SIC,,GET,DATA.DEEP,OK,1.19*1a
$GPGGA,083538.40,0043.5666697,S,00847.6288210,E,4,28,0.5,1.9092,M,0.000,M,1.4,0004*56
@SIC,,GET,DATA.DEEP,OK,1.21*11
$GPGGA,083538.60,0043.5667699,S,00847.6286427,E,4,28,0.5,1.9177,M,0.000,M,1.6,0004*5F
@SIC,,GET,DATA.DEEP,OK,1.19*1a
@SIC,,GET,DATA.DEEP,OK,1.19*1a
$GPGGA,083538.80,0043.5668636,S,00847.6284558,E,4,28,0.5,1.9242,M,0.000,M,1.8,0004*5B
@SIC,,GET,DATA.DEEP,OK,1.19*1a
$GPGGA,083539.00,0043.5669514,S,00847.6282604,E,4,28,0.5,1.9275,M,0.000,M,2.0,0004*53
@SIC,,GET,DATA.DEEP,OK,1.21*11
@SIC,,GET,DATA.DEEP,OK,1.21*11
$GPGGA,083539.20,0043.5670336,S,00847.6280663,E,4,28,0.5,1.9275,M,0.000,M,2.2,0004*5E
$GPHDT,245.8757,T*0B
$GPZDA,083539.00,21,04,2026,,*63
@SIC,,GET,DATA.DEEP,OK,1.21*11
$GPGGA,083539.40,0043.5671203,S,00847.6278641,E,4,28,0.5,1.9265,M,0.000,M,2.4,0004*5E
@SIC,,GET,DATA.DEEP,OK,1.28*18
@SIC,,GET,DATA.DEEP,OK,1.24*14
$GPGGA,083539.60,0043.5672165,S,00847.6276658,E,4,28,0.5,1.9325,M,0.000,M,2.6,0004*5D
@SIC,,GET,DATA.DEEP,OK,1.27*17
$GPGGA,083539.80,0043.5673119,S,00847.6274700,E,4,28,0.5,1.9396,M,0.000,M,2.8,0004*51
@SIC,,GET,DATA.DEEP,OK,1.28*18
@SIC,,GET,DATA.DEEP,OK,1.28*18
$GPGGA,083540.00,0043.5674129,S,00847.6272831,E,4,28,0.5,1.9423,M,0.000,M,3.0,0004*58
@SIC,,GET,DATA.DEEP,OK,1.27*17
@SIC,,GET,DATA.DEEP,OK,1.28*18
$GPGGA,083540.20,0043.5675180,S,00847.6271019,E,4,28,0.5,1.9428,M,0.000,M,3.2,0004*50
$GPHDT,239.1121,T*0E
$GPZDA,083540.00,21,04,2026,,*6D
@SIC,,GET,DATA.DEEP,OK,1.28*18
@SIC,,GET,DATA.DEEP,OK,1.30@SIC,,GET,DATA.DEEP,OK,0.35*15
*11
@SIC,,GET,DATA.DEEP,OK,1.31*10
@SIC,,GET,DATA.DEEP,OK,1.28*18
@SIC,,GET,DATA.DEEP,OK,1.30*11
@SIC,,GET,DATA.DEEP,OK,1.31*10
@SIC,,GET,DATA.DEEP,OK,1.31*10
@SIC,,GET,DATA.DEEP,OK,1.27*17
@SIC,,GET,DATA.DEEP,OK,1.33*12
@SIC,,GET,DATA.DEEP,OK,1.31*10
@SIC,,GET,DATA.DEEP,OK,1.33*12
@SIC,,GET,DATA.DEEP,OK,1.36*17
@SIC,,GET,DATA.DEEP,OK,1.30*11
$GPGGA,083545.20,0043.5699371,S,00847.6225769,E,4,28,0.5,1.9094,M,0.000,M,8.2,0004*52
$GPZDA,083544.00,21,04,2026,,*69
@SIC,,GET,DATA.DEEP,OK,1.28*18
$GPGGA,083545.40,0043.5700404,S,00847.6223868,E,4,28,0.5,1.9091,M,0.000,M,8.4,0004*5B
@SIC,,GET,DATA.DEEP,OK,1.30*11
$GPGGA,083545.60,0043.5701441,S,00847.6221931,E,4,28,0.5,1.9099,M,0.000,M,8.6,0004*5C
@SIC,,GET,DATA.DEEP,OK,1.28*18
@SIC,,GET,DATA.DEEP,OK,1.27*17
$GPGGA,083545.80,0043.5702493,S,00847.6219989,E,4,28,0.5,1.9092,M,0.000,M,8.8,0004*53
@SIC,,GET,DATA.DEEP,OK,1.28*18
$GPGGA,083546.00,0043.5703513,S,00847.6218078,E,4,28,0.5,1.9059,M,0.000,M,9.0,0004*58
@SIC,,GET,DATA.DEEP,OK,1.27*17
@SIC,,GET,DATA.DEEP,OK,1.25*15
$GPGGA,083546.20,0043.5704520,S,00847.6216173,E,4,28,0.5,1.9043,M,0.000,M,9.2,0004*50
$GPHDT,241.5980,T*06
$GPZDA,083546.00,21,04,2026,,*6B
@SIC,,GET,DATA.DEEP,OK,1.24*14
$GPGGA,083546.40,0043.5705542,S,00847.6214234,E,4,28,0.5,1.9028,M,0.000,M,0.4,0004*53
@SIC,,GET,DATA.DEEP,OK,1.27*17
@SIC,,GET,DATA.DEEP,OK,1.24*14
$GPGGA,083546.60,0043.5706565,S,00847.6212321,E,4,28,0.5,1.9030,M,0.000,M,0.6,0004*5F
@SIC,,GET,DATA.DEEP,OK,1.24*14
$GPGGA,083546.80,0043.5707557,S,00847.6210442,E,4,28,0.5,1.9038,M,0.000,M,0.8,0004*57
@SIC,,GET,DATA.DEEP,OK,1.24*14
@SIC,,GET,DATA.DEEP,OK,1.25*15
$GPGGA,083547.00,0043.5708568,S,00847.6208547,E,4,28,0.5,1.9095,M,0.000,M,1.0,0004*5E
$GPZDA,083547.00,21,04,2026,,*6A
@SIC,,GET,DATA.DEEP,OK,1.27*17
@SIC,,GET,DATA.DEEP,OK,1.27*17
$GPGGA,083547.20,0043.5709575,S,00847.6206654,E,4,28,0.5,1.9074,M,0.000,M,1.2,0004*53
@SIC,,GET,DATA.DEEP,OK,1.24*14
$GPGGA,083547.40,0043.5710602,S,00847.6204816,E,4,28,0.5,1.9048,M,0.000,M,1.4,0004*5D
@SIC,,GET,DATA.DEEP,OK,1.24*14
$GPGGA,083547.60,0043.5712089,S,00847.6202698,E,4,28,0.5,1.9465,M,0.000,M,1.6,0004*5F
@SIC,,GET,DATA.DEEP,OK,1.25*15
@SIC,,GET,DATA.DEEP,OK,1.25*15
$GPGGA,083547.80,0043.5713231,S,00847.6200840,E,4,28,0.5,1.9442,M,0.000,M,1.8,0004*53
@SIC,,GET,DATA.DEEP,OK,1.24*14
$GPGGA,083548.00,0043.5714321,S,00847.6199064,E,4,28,0.5,1.9377,M,0.000,M,2.0,0004*54
$GPZDA,083548.00,21,04,2026,,*65
@SIC,,GET,DATA.DEEP,OK,1.19*1a
@SIC,,GET,DATA.DEEP,OK,1.22*12
$GPGGA,083548.20,0043.5715460,S,00847.6197291,E,4,28,0.5,1.9316,M,0.000,M,2.2,0004*56
@SIC,,GET,DATA.DEEP,OK,1.21*11
$GPGGA,083548.40,0043.5716563,S,00847.6195465,E,4,28,0.5,1.9254,M,0.000,M,2.4,0004*5F
@SIC,,GET,DATA.DEEP,OK,1.16*15
@SIC,,GET,DATA.DEEP,OK,1.12*11
$GPGGA,083548.60,0043.5717614,S,00847.6193569,E,4,28,0.5,1.9167,M,0.000,M,2.6,0004*55
@SIC,,GET,DATA.DEEP,OK,1.16*15
$GPGGA,083548.80,0043.5718633,S,00847.6191682,E,4,28,0.5,1.9085,M,0.000,M,2.8,0004*56
@SIC,,GET,DATA.DEEP,OK,1.15*16
@SIC,,GET,DATA.DEEP,OK,1.16*15
$GPGGA,083549.00,0043.5719695,S,00847.6189812,E,4,28,0.5,1.9034,M,0.000,M,3.0,0004*5F
$GPZDA,083549.00,21,04,2026,,*64
@SIC,,GET,DATA.DEEP,OK,1.16*15
@SIC,,GET,DATA.DEEP,OK,1.13*10
$GPGGA,083549.20,0043.5720644,S,00847.6187891,E,4,28,0.5,1.9011,M,0.000,M,3.2,0004*5B
$GPGGA,083549.40,0043.5721630,S,00847.6185978,E,4,28,0.5,1.8998,M,0.000,M,3.4,0004*54
@SIC,,GET,DATA.DEEP,OK,1.19*1a
@SIC,,GET,DATA.DEEP,OK,1.18*1b
$GPGGA,083549.60,0043.5722657,S,00847.6184112,E,4,28,0.5,1.8990,M,0.000,M,3.6,0004*5B
@SIC,,GET,DATA.DEEP,OK,1.15*16
@SIC,,GET,DATA.DEEP,OK,1.15*16
$GPGGA,083549.80,0043.5723705,S,00847.6182213,E,4,28,0.5,1.8969,M,0.000,M,3.8,0004*5E
@SIC,,GET,DATA.DEEP,OK,1.19*1a
$GPGGA,083550.00,0043.5724774,S,00847.6180299,E,4,28,0.5,1.8927,M,0.000,M,4.0,0004*5A
$GPZDA,083550.00,21,04,2026,,*6C
@SIC,,GET,DATA.DEEP,OK,1.12*11
$GPGGA,083550.20,0043.5725798,S,00847.6178403,E,4,28,0.5,1.8909,M,0.000,M,4.2,0004*57
@SIC,,GET,DATA.DEEP,OK,1.11*12
@SIC,,GET,DATA.DEEP,OK,1.11*12
$GPGGA,083550.40,0043.5726829,S,00847.6176508,E,4,28,0.5,1.8918,M,0.000,M,0.4,0004*51
@SIC,,GET,DATA.DEEP,OK,1.13*10
$GPGGA,083550.60,0043.5727864,S,00847.6174621,E,4,28,0.5,1.8910,M,0.000,M,0.6,0004*5B
@SIC,,GET,DATA.DEEP,OK,1.11*12
@SIC,,GET,DATA.DEEP,OK,1.11*12
$GPGGA,083550.80,0043.5728894,S,00847.6172759,E,4,28,0.5,1.8887,M,0.000,M,0.8,0004*5C
@SIC,,GET,DATA.DEEP,OK,1.11*12
$GPGGA,083551.00,0043.5729953,S,00847.6170892,E,4,28,0.5,1.8887,M,0.000,M,1.0,0004*5D
$GPZDA,083551.00,21,04,2026,,*6D
@SIC,,GET,DATA.DEEP,OK,1.09*1b
@SIC,,GET,DATA.DEEP,OK,1.03*11
$GPGGA,083551.20,0043.5731012,S,00847.6169014,E,4,28,0.5,1.8867,M,0.000,M,1.2,0004*58
@SIC,,GET,DATA.DEEP,OK,1.05*17
$GPGGA,083551.40,0043.5732048,S,00847.6167151,E,4,28,0.5,1.8803,M,0.000,M,1.4,0004*58
@SIC,,GET,DATA.DEEP,OK,1.06*14
@SIC,,GET,DATA.DEEP,OK,1.05*17
$GPGGA,083551.60,0043.5733123,S,00847.6165302,E,4,28,0.5,1.8800,M,0.000,M,1.6,0004*50
@SIC,,GET,DATA.DEEP,OK,1.03*11
$GPGGA,083551.80,0043.5734187,S,00847.6163406,E,4,28,0.5,1.8784,M,0.000,M,1.8,0004*5F
@SIC,,GET,DATA.DEEP,OK,1.02*10
@SIC,,GET,DATA.DEEP,OK,1.00*12
$GPGGA,083552.00,0043.5735237,S,00847.6161506,E,4,28,0.5,1.8768,M,0.000,M,2.0,0004*57
$GPZDA,083552.00,21,04,2026,,*6E
@SIC,,GET,DATA.DEEP,OK,1.02*10
$GPGGA,083552.20,0043.5736338,S,00847.6159615,E,4,28,0.5,1.8786,M,0.000,M,2.2,0004*50
@SIC,,GET,DATA.DEEP,OK,1.05*17
@SIC,,GET,DATA.DEEP,OK,1.02*10
$GPGGA,083552.40,0043.5737391,S,00847.6157694,E,4,28,0.5,1.8789,M,0.000,M,2.4,0004*5A
@SIC,,GET,DATA.DEEP,OK,1.00*12
$GPGGA,083552.60,0043.5738373,S,00847.6155717,E,4,28,0.5,1.8784,M,0.000,M,2.6,0004*5C
@SIC,,GET,DATA.DEEP,OK,1.00*12
@SIC,,GET,DATA.DEEP,OK,0.97*1d
$GPGGA,083552.80,0043.5739414,S,00847.6153768,E,4,28,0.5,1.8788,M,0.000,M,0.8,0004*5B
@SIC,,GET,DATA.DEEP,OK,0.97*1d
$GPGGA,083553.00,0043.5740521,S,00847.6151827,E,4,28,0.5,1.8870,M,0.000,M,1.0,0004*5C
$GPZDA,083553.00,21,04,2026,,*6F
@SIC,,GET,DATA.DEEP,OK,1.00*12
@SIC,,GET,DATA.DEEP,OK,1.00*12
$GPGGA,083553.20,0043.5741653,S,00847.6149885,E,4,28,0.5,1.8968,M,0.000,M,1.2,0004*52
@SIC,,GET,DATA.DEEP,OK,0.99*13
$GPGGA,083553.40,0043.5742789,S,00847.6147980,E,4,28,0.5,1.9076,M,0.000,M,1.4,0004*5A
@SIC,,GET,DATA.DEEP,OK,0.99*13
@SIC,,GET,DATA.DEEP,OK,0.99*13
$GPGGA,083553.60,0043.5743910,S,00847.6146110,E,4,28,0.5,1.9162,M,0.000,M,1.6,0004*51
@SIC,,GET,DATA.DEEP,OK,1.02*10
$GPGGA,083553.80,0043.5745047,S,00847.6144176,E,4,28,0.5,1.9219,M,0.000,M,1.8,0004*51
@SIC,,GET,DATA.DEEP,OK,0.99*13
@SIC,,GET,DATA.DEEP,OK,0.97*1d
$GPGGA,083554.00,0043.5746168,S,00847.6142245,E,4,28,0.5,1.9220,M,0.000,M,2.0,0004*55
$GPZDA,083554.00,21,04,2026,,*68
@SIC,,GET,DATA.DEEP,OK,0.96*1c
$GPGGA,083554.20,0043.5747232,S,00847.6140339,E,4,28,0.5,1.9277,M,0.000,M,2.2,0004*52
@SIC,,GET,DATA.DEEP,OK,0.94*1e
@SIC,,GET,DATA.DEEP,OK,0.94*1e
$GPGGA,083554.40,0043.5748322,S,00847.6138452,E,4,28,0.5,1.9338,M,0.000,M,2.4,0004*52
@SIC,,GET,DATA.DEEP,OK,0.94*1e
$GPGGA,083554.60,0043.5749376,S,00847.6136491,E,4,28,0.5,1.9372,M,0.000,M,2.6,0004*5D
@SIC,,GET,DATA.DEEP,OK,0.91*1b
@SIC,,GET,DATA.DEEP,OK,0.91*1b
$GPGGA,083554.80,0043.5750421,S,00847.6134554,E,4,28,0.5,1.9415,M,0.000,M,2.8,0004*5C
@SIC,,GET,DATA.DEEP,OK,0.90*1a
$GPGGA,083555.00,0043.5751500,S,00847.6132690,E,4,28,0.5,1.9491,M,0.000,M,3.0,0004*5E
$GPZDA,083555.00,21,04,2026,,*69
@SIC,,GET,DATA.DEEP,OK,0.88*13
@SIC,,GET,DATA.DEEP,OK,0.88*13
$GPGGA,083555.20,0043.5752614,S,00847.6130806,E,4,28,0.5,1.9529,M,0.000,M,3.2,0004*5A
@SIC,,GET,DATA.DEEP,OK,0.87*1c
@SIC,,GET,DATA.DEEP,OK,0.84*1f
@SIC,,GET,DATA.DEEP,OK,0.82*19
@SIC,,GET,DATA.DEEP,OK,0.82*19
@SIC,,GET,DATA.DEEP,OK,0.84*1f
@SIC,,GET,DATA.DEEP,OK,0.79*1d
@SIC,,GET,DATA.DEEP,OK,0.76*12
@SIC,,GET,DATA.DEEP,OK,0.72*16
@SIC,,GET,DATA.DEEP,OK,0.69*1c
@SIC,,GET,DATA.DEEP,OK,0.65*10
@SIC,,GET,DATA.DEEP,OK,0.60*15
@SIC,,GET,DATA.DEEP,OK,0.60*15
@SIC,,GET,DATA.DEEP,OK,0.54*12
$GPGGA,083600.20,0043.5774366,S,00847.6093685,E,4,28,0.5,2.0542,M,0.000,M,8.2,0004*5C
$GPZDA,083559.00,21,04,2026,,*65
@SIC,,GET,DATA.DEEP,OK,0.00*13
$GPGGA,083600.40,0043.5774595,S,00847.6093241,E,4,28,0.5,2.0583,M,0.000,M,8.4,0004*57
@SIC,,GET,DATA.DEEP,OK,0.00*13
$GPGGA,083600.60,0043.5774625,S,00847.6093094,E,4,28,0.5,2.0630,M,0.000,M,8.6,0004*5E
@SIC,,GET,DATA.DEEP,OK,0.00*13
@SIC,,GET,DATA.DEEP,OK,0.00*13
$GPGGA,083600.80,0043.5774626,S,00847.6093090,E,4,28,0.5,2.0649,M,0.000,M,8.8,0004*57
@SIC,,GET,DATA.DEEP,OK,0.00*13
$GPGGA,083601.00,0043.5774632,S,00847.6093081,E,4,28,0.5,2.0657,M,0.000,M,9.0,0004*5D
@SIC,,GET,DATA.DEEP,OK,0.00*13
@SIC,,GET,DATA.DEEP,OK,0.00*13
$GPGGA,083601.20,0043.5774634,S,00847.6093074,E,4,28,0.5,2.0665,M,0.000,M,9.2,0004*50
$GPHDT,238.8090,T*0D
@SIC,,GET,DATA.DEEP,OK,0.00*13
$GPGGA,083601.40,0043.5774635,S,00847.6093070,E,4,28,0.5,2.0673,M,0.000,M,0.4,0004*5B
@SIC,,GET,DATA.DEEP,OK,0.00*13
@SIC,,GET,DATA.DEEP,OK,0.00*13
$GPGGA,083601.60,0043.5774646,S,00847.6093061,E,4,28,0.5,2.0693,M,0.000,M,0.6,0004*51
@SIC,,GET,DATA.DEEP,OK,0.00*13
$GPGGA,083601.80,0043.5774644,S,00847.6093052,E,4,28,0.5,2.0701,M,0.000,M,0.8,0004*59
@SIC,,GET,DATA.DEEP,OK,0.00*13
@SIC,,GET,DATA.DEEP,OK,0.00*13
$GPGGA,083602.00,0043.5774656,S,00847.6093041,E,4,28,0.5,2.0715,M,0.000,M,1.0,0004*5F
@SIC,,GET,DATA.DEEP,OK,0.00*13
@SIC,,GET,DATA.DEEP,OK,0.00*13
$GPGGA,083602.20,0043.5774651,S,00847.6093030,E,4,28,0.5,2.0730,M,0.000,M,1.2,0004*59
$GPHDT,239.0221,T*0C
$GPZDA,083602.00,21,04,2026,,*68
@SIC,,GET,DATA.DEEP,OK,0.00*13
$GPGGA,083602.40,0043.5774656,S,00847.6093033,E,4,28,0.5,2.0746,M,0.000,M,1.4,0004*5C
@SIC,,GET,DATA.DEEP,OK,0.00*13
$GPGGA,083602.60,0043.5774660,S,00847.6093023,E,4,28,0.5,2.0763,M,0.000,M,1.6,0004*5F
@SIC,,GET,DATA.DEEP,OK,0.00*13
@SIC,,GET,DATA.DEEP,OK,0.00*13
$GPGGA,083602.80,0043.5774663,S,00847.6093006,E,4,28,0.5,2.0763,M,0.000,M,1.8,0004*5B
@SIC,,GET,DATA.DEEP,OK,0.00*13
$GPGGA,083603.00,0043.5774664,S,00847.6092996,E,4,28,0.5,2.0776,M,0.000,M,2.0,0004*5B
$GPZDA,083603.00,21,04,2026,,*69
@SIC,,GET,DATA.DEEP,OK,0.00*13
@SIC,,GET,DATA.DEEP,OK,0.00*13
$GPGGA,083603.20,0043.5774666,S,00847.6092982,E,4,28,0.5,2.0791,M,0.000,M,2.2,0004*55
@SIC,,GET,DATA.DEEP,OK,0.00*13
$GPGGA,083603.40,0043.5774655,S,00847.6092961,E,4,28,0.5,2.0803,M,0.000,M,2.4,0004*5C
@SIC,,GET,DATA.DEEP,OK,0.00*13
@SIC,,GET,DATA.DEEP,OK,0.00*13
$GPGGA,083603.60,0043.5774628,S,00847.6092927,E,4,28,0.5,2.0814,M,0.000,M,0.6,0004*50
@SIC,,GET,DATA.DEEP,OK,0.00*13
$GPGGA,083603.80,0043.5774595,S,00847.6092893,E,4,28,0.5,2.0841,M,0.000,M,0.8,0004*5B
@SIC,,GET,DATA.DEEP,OK,0.00*13
@SIC,,GET,DATA.DEEP,OK,0.00*13
$GPGGA,083604.00,0043.5774615,S,00847.6093925,E,4,28,0.5,1.9674,M,0.000,M,1.0,0004*59
$GPZDA,083604.00,21,04,2026,,*6E
@SIC,,GET,DATA.DEEP,OK,0.00*13
@SIC,,GET,DATA.DEEP,OK,0.00*13
$GPGGA,083604.20,0043.5774570,S,00847.6093940,E,4,28,0.5,1.9645,M,0.000,M,1.2,0004*58
@SIC,,GET,DATA.DEEP,OK,0.00*13
$GPGGA,083604.40,0043.5774579,S,00847.6093918,E,4,28,0.5,1.9639,M,0.000,M,1.4,0004*57
@SIC,,GET,DATA.DEEP,OK,0.00*13
$GPGGA,083604.60,0043.5774571,S,00847.6093903,E,4,28,0.5,1.9647,M,0.000,M,1.6,0004*5C
@SIC,,GET,DATA.DEEP,OK,0.00*13
@SIC,,GET,DATA.DEEP,OK,0.00*13
$GPGGA,083604.80,0043.5774544,S,00847.6093856,E,4,28,0.5,1.9651,M,0.000,M,1.8,0004*5C
@SIC,,GET,DATA.DEEP,OK,0.00*13
$GPGGA,083605.00,0043.5774499,S,00847.6093759,E,4,28,0.5,1.9668,M,0.000,M,2.0,0004*55
@SIC,,GET,DATA.DEEP,OK,0.00*13
@SIC,,GET,DATA.DEEP,OK,0.00*13
$GPGGA,083605.20,0043.5774436,S,00847.6093641,E,4,28,0.5,1.9677,M,0.000,M,2.2,0004*56
$GPHDT,232.0174,T*04
$GPZDA,083605.00,21,04,2026,,*6F
@SIC,,GET,DATA.DEEP,OK,0.00*13
$GPGGA,083605.40,0043.5774354,S,00847.6093507,E,4,28,0.5,1.9756,M,0.000,M,0.4,0004*54
@SIC,,GET,DATA.DEEP,OK,0.00*13
@SIC,,GET,DATA.DEEP,OK,0.45*12
$GPGGA,083605.60,0043.5774257,S,00847.6093404,E,4,28,0.5,1.9858,M,0.000,M,0.6,0004*55
@SIC,,GET,DATA.DEEP,OK,0.00*13
$GPGGA,083605.80,0043.5774149,S,00847.6093330,E,4,28,0.5,1.9955,M,0.000,M,0.8,0004*55
@SIC,,GET,DATA.DEEP,OK,0.00*13
$GPGGA,083606.00,0043.5774048,S,00847.6093299,E,4,28,0.5,2.0043,M,0.000,M,1.0,0004*51
$GPZDA,083606.00,21,04,2026,,*6C
@SIC,,GET,DATA.DEEP,OK,0.00*13
@SIC,,GET,DATA.DEEP,OK,0.00*13
@SIC,,GET,DATA.DEEP,OK,0.00*13
$GPGGA,083606.20,0043.5773999,S,00847.6093287,E,4,28,0.5,2.0070,M,0.000,M,1.2,0004*5C
$GPGGA,083606.40,0043.5773968,S,00847.6093267,E,4,28,0.5,2.0055,M,0.000,M,1.4,0004*5B
@SIC,,GET,DATA.DEEP,OK,0.00*13
@SIC,,GET,DATA.DEEP,OK,0.00*13
$GPGGA,083606.60,0043.5773935,S,00847.6093231,E,4,28,0.5,2.0016,M,0.000,M,1.6,0004*57
@SIC,,GET,DATA.DEEP,OK,0.00*13
$GPGGA,083606.80,0043.5773856,S,00847.6093160,E,4,28,0.5,2.0003,M,0.000,M,1.8,0004*50
@SIC,,GET,DATA.DEEP,OK,0.00*13
@SIC,,GET,DATA.DEEP,OK,0.00*13
$GPGGA,083607.00,0043.5773780,S,00847.6093009,E,4,28,0.5,2.0073,M,0.000,M,2.0,0004*5F
@SIC,,GET,DATA.DEEP,OK,0.00*13
$GPGGA,083607.20,0043.5773725,S,00847.6092943,E,4,28,0.5,2.0119,M,0.000,M,2.2,0004*5B
$GPHDT,216.9532,T*0D
$GPZDA,083607.00,21,04,2026,,*6D
@SIC,,GET,DATA.DEEP,OK,0.00*13
@SIC,,GET,DATA.DEEP,OK,0.00*13
$GPGGA,083607.40,0043.5773711,S,00847.6092897,E,4,28,0.5,2.0125,M,0.000,M,2.4,0004*5B
@SIC,,GET,DATA.DEEP,OK,0.00*13
$GPGGA,083607.60,0043.5773677,S,00847.6092869,E,4,28,0.5,2.0141,M,0.000,M,2.6,0004*59
@SIC,,GET,DATA.DEEP,OK,0.00*13
@SIC,,GET,DATA.DEEP,OK,0.00*13
$GPGGA,083607.80,0043.5773632,S,00847.6092797,E,4,28,0.5,2.0131,M,0.000,M,0.8,0004*53
@SIC,,GET,DATA.DEEP,OK,0.00*13
$GPGGA,083608.00,0043.5773524,S,00847.6092616,E,4,28,0.5,2.0269,M,0.000,M,1.0,0004*5F
$GPZDA,083608.00,21,04,2026,,*62
@SIC,,GET,DATA.DEEP,OK,0.00*13
@SIC,,GET,DATA.DEEP,OK,0.00*13
$GPGGA,083608.20,0043.5773390,S,00847.6092397,E,4,28,0.5,2.0380,M,0.000,M,1.2,0004*5C
@SIC,,GET,DATA.DEEP,OK,0.00*13
$GPGGA,083608.40,0043.5773320,S,00847.6092264,E,4,28,0.5,2.0538,M,0.000,M,1.4,0004*5F
@SIC,,GET,DATA.DEEP,OK,0.00*13
@SIC,,GET,DATA.DEEP,OK,0.00*13
$GPGGA,083608.60,0043.5773211,S,00847.6092255,E,4,28,0.5,2.0496,M,0.000,M,1.6,0004*5B
@SIC,,GET,DATA.DEEP,OK,0.00*13
$GPGGA,083608.80,0043.5773104,S,00847.6092288,E,4,28,0.5,2.0458,M,0.000,M,1.8,0004*5E
@SIC,,GET,DATA.DEEP,OK,0.00*13
@SIC,,GET,DATA.DEEP,OK,0.00*13
$GPGGA,083609.00,0043.5773105,S,00847.6092347,E,4,28,0.5,2.0403,M,0.000,M,2.0,0004*51
@SIC,,GET,DATA.DEEP,OK,0.00*13
$GPGGA,083609.20,0043.5773072,S,00847.6092356,E,4,28,0.5,2.0288,M,0.000,M,2.2,0004*55
$GPHDT,202.6831,T*09
$GPZDA,083609.00,21,04,2026,,*63
@SIC,,GET,DATA.DEEP,OK,0.00*13
@SIC,,GET,DATA.DEEP,OK,0.00*13
$GPGGA,083609.40,0043.5773080,S,00847.6092297,E,4,28,0.5,2.0316,M,0.000,M,2.4,0004*52
@SIC,,GET,DATA.DEEP,OK,0.00*13
$GPGGA,083609.60,0043.5773068,S,00847.6091971,E,4,28,0.5,2.0454,M,0.000,M,2.6,0004*55
@SIC,,GET,DATA.DEEP,OK,0.00*13
@SIC,,GET,DATA.DEEP,OK,0.00*13
$GPGGA,083609.80,0043.5773007,S,00847.6091638,E,4,28,0.5,2.0662,M,0.000,M,2.8,0004*59
@SIC,,GET,DATA.DEEP,OK,0.00*13
$GPGGA,083610.00,0043.5772953,S,00847.6091387,E,4,28,0.5,2.0783,M,0.000,M,3.0,0004*56
$GPZDA,083610.00,21,04,2026,,*6B
@SIC,,GET,DATA.DEEP,OK,0.44*13
@SIC,,GET,DATA.DEEP,OK,0.00*13
$GPGGA,083610.20,0043.5772929,S,00847.6091306,E,4,28,0.5,2.0770,M,0.000,M,3.2,0004*5E
@SIC,,GET,DATA.DEEP,OK,0.00*13
$GPGGA,083610.40,0043.5772879,S,00847.6091346,E,4,28,0.5,2.0739,M,0.000,M,3.4,0004*53
@SIC,,GET,DATA.DEEP,OK,0.00*13
@SIC,,GET,DATA.DEEP,OK,0.00*13
$GPGGA,083610.60,0043.5772807,S,00847.6091385,E,4,28,0.5,2.0680,M,0.000,M,3.6,0004*56
@SIC,,GET,DATA.DEEP,OK,0.00*13
$GPGGA,083610.80,0043.5772742,S,00847.6091486,E,4,28,0.5,2.0614,M,0.000,M,3.8,0004*51
@SIC,,GET,DATA.DEEP,OK,0.00*13
@SIC,,GET,DATA.DEEP,OK,0.00*13
$GPGGA,083611.00,0043.5772706,S,00847.6091533,E,4,28,0.5,2.0538,M,0.000,M,4.0,0004*55
$GPHDT,193.2816,T*03
$GPZDA,083611.00,21,04,2026,,*6A
@SIC,,GET,DATA.DEEP,OK,0.00*13
$GPGGA,083611.20,0043.5772709,S,00847.6091496,E,4,28,0.5,2.0512,M,0.000,M,4.2,0004*5C
@SIC,,GET,DATA.DEEP,OK,0.00*13
@SIC,,GET,DATA.DEEP,OK,0.00*13
$GPGGA,083611.40,0043.5772704,S,00847.6091366,E,4,28,0.5,2.0558,M,0.000,M,0.4,0004*53
@SIC,,GET,DATA.DEEP,OK,0.00*13
$GPGGA,083611.60,0043.5772691,S,00847.6091198,E,4,28,0.5,2.0628,M,0.000,M,0.6,0004*59
@SIC,,GET,DATA.DEEP,OK,0.00*13
$GPGGA,083611.80,0043.5772656,S,00847.6091156,E,4,28,0.5,2.0652,M,0.000,M,0.8,0004*5D
@SIC,,GET,DATA.DEEP,OK,0.00*13
@SIC,,GET,DATA.DEEP,OK,0.00*13
$GPGGA,083612.00,0043.5772613,S,00847.6091174,E,4,28,0.5,2.0619,M,0.000,M,1.0,0004*51
@SIC,,GET,DATA.DEEP,OK,0.00*13
@SIC,,GET,DATA.DEEP,OK,0.00*13
$GPGGA,083612.20,0043.5772594,S,00847.6091237,E,4,28,0.5,2.0565,M,0.000,M,1.2,0004*51
$GPHDT,190.4468,T*03
$GPZDA,083612.00,21,04,2026,,*69
@SIC,,GET,DATA.DEEP,OK,0.00*13
$GPGGA,083612.40,0043.5772589,S,00847.6091332,E,4,28,0.5,2.0434,M,0.000,M,1.4,0004*5C
@SIC,,GET,DATA.DEEP,OK,0.00*13
$GPGGA,083612.60,0043.5772583,S,00847.6091384,E,4,28,0.5,2.0333,M,0.000,M,1.6,0004*5B
@SIC,,GET,DATA.DEEP,OK,0.00*13
@SIC,,GET,DATA.DEEP,OK,0.00*13
$GPGGA,083612.80,0043.5772596,S,00847.6091405,E,4,28,0.5,2.0273,M,0.000,M,1.8,0004*54
@SIC,,GET,DATA.DEEP,OK,0.00*13
$GPGGA,083613.00,0043.5772600,S,00847.6091315,E,4,28,0.5,2.0262,M,0.000,M,2.0,0004*5C
$GPZDA,083613.00,21,04,2026,,*68
@SIC,,GET,DATA.DEEP,OK,0.00*13
@SIC,,GET,DATA.DEEP,OK,0.00*13
$GPGGA,083613.20,0043.5772579,S,00847.6090926,E,4,28,0.5,2.0331,M,0.000,M,2.2,0004*5D
@SIC,,GET,DATA.DEEP,OK,0.00*13
$GPGGA,083613.40,0043.5772532,S,00847.6090451,E,4,28,0.5,2.0455,M,0.000,M,2.4,0004*5A
@SIC,,GET,DATA.DEEP,OK,0.00*13
@SIC,,GET,DATA.DEEP,OK,0.44*13
$GPGGA,083613.60,0043.5772493,S,00847.6090020,E,4,28,0.5,2.0465,M,0.000,M,2.6,0004*51
@SIC,,GET,DATA.DEEP,OK,0.35*15
$GPGGA,083613.80,0043.5772435,S,00847.6089852,E,4,28,0.5,2.0458,M,0.000,M,0.8,0004*54
@SIC,,GET,DATA.DEEP,OK,0.44*13
@SIC,,GET,DATA.DEEP,OK,0.00*13
$GPGGA,083614.00,0043.5772400,S,00847.6089893,E,4,28,0.5,2.0516,M,0.000,M,1.0,0004*52
@SIC,,GET,DATA.DEEP,OK,0.00*13
@SIC,,GET,DATA.DEEP,OK,0.00*13
$GPGGA,083614.20,0043.5772413,S,00847.6089848,E,4,28,0.5,2.0546,M,0.000,M,1.2,0004*53
$GPHDT,173.0429,T*0F
@SIC,,GET,DATA.DEEP,OK,0.00*13
$GPGGA,083614.40,0043.5772413,S,00847.6089850,E,4,28,0.5,2.0543,M,0.000,M,1.4,0004*5F
@SIC,,GET,DATA.DEEP,OK,0.00*13
$GPGGA,083614.60,0043.5772416,S,00847.6089839,E,4,28,0.5,2.0542,M,0.000,M,1.6,0004*54
@SIC,,GET,DATA.DEEP,OK,0.00*13
@SIC,,GET,DATA.DEEP,OK,0.00*13
$GPGGA,083614.80,0043.5772424,S,00847.6089828,E,4,28,0.5,2.0543,M,0.000,M,1.8,0004*54
@SIC,,GET,DATA.DEEP,OK,0.00*13
$GPGGA,083615.00,0043.5772432,S,00847.6089809,E,4,28,0.5,2.0526,M,0.000,M,2.0,0004*51
@SIC,,GET,DATA.DEEP,OK,0.00*13
@SIC,,GET,DATA.DEEP,OK,0.00*13
$GPGGA,083615.20,0043.5772438,S,00847.6089793,E,4,28,0.5,2.0521,M,0.000,M,2.2,0004*50
$GPHDT,173.2421,T*05
$GPZDA,083615.00,21,04,2026,,*6E
@SIC,,GET,DATA.DEEP,OK,0.00*13
$GPGGA,083615.40,0043.5772460,S,00847.6089782,E,4,28,0.5,2.0526,M,0.000,M,2.4,0004*5A
@SIC,,GET,DATA.DEEP,OK,0.00*13
@SIC,,GET,DATA.DEEP,OK,0.00*13
$GPGGA,083615.60,0043.5772462,S,00847.6089771,E,4,28,0.5,2.0512,M,0.000,M,2.6,0004*53
@SIC,,GET,DATA.DEEP,OK,0.00*13
$GPGGA,083615.80,0043.5772484,S,00847.6089766,E,4,28,0.5,2.0501,M,0.000,M,2.8,0004*5F
@SIC,,GET,DATA.DEEP,OK,0.00*13
@SIC,,GET,DATA.DEEP,OK,0.00*13
$GPGGA,083616.00,0043.5772495,S,00847.6089748,E,4,28,0.5,2.0501,M,0.000,M,3.0,0004*51
@SIC,,GET,DATA.DEEP,OK,0.00*13
@SIC,,GET,DATA.DEEP,OK,0.00*13
$GPGGA,083616.20,0043.5772504,S,00847.6089728,E,4,28,0.5,2.0479,M,0.000,M,3.2,0004*50
$GPHDT,173.1866,T*09
$GPZDA,083616.00,21,04,2026,,*6D
@SIC,,GET,DATA.DEEP,OK,0.00*13
@SIC,,GET,DATA.DEEP,OK,0.00*13
@SIC,,GET,DATA.DEEP,OK,0.00*13
@SIC,,GET,DATA.DEEP,OK,0.00*13
@SIC,,GET,DATA.DEEP,OK,0.00*13
@SIC,,GET,DATA.DEEP,OK,0.00*13
@SIC,,GET,DATA.DEEP,OK,0.00*13
@SIC,,GET,DATA.DEEP,OK,0.00*13
@SIC,,GET,DATA.DEEP,OK,0.00*13
@SIC,,GET,DATA.DEEP,OK,0.00*13
@SIC,,GET,DATA.DEEP,OK,0.00*13
@SIC,,GET,DATA.DEEP,OK,0.00*13
@SIC,,GET,DATA.DEEP,OK,0.00*13
$GPGGA,083621.20,0043.5772751,S,00847.6088681,E,4,28,0.5,2.0452,M,0.000,M,8.2,0004*57
$GPZDA,083620.00,21,04,2026,,*68
@SIC,,GET,DATA.DEEP,OK,0.00*13
$GPGGA,083621.40,0043.5772774,S,00847.6088630,E,4,28,0.5,2.0466,M,0.000,M,8.4,0004*5D
@SIC,,GET,DATA.DEEP,OK,0.00*13
$GPGGA,083621.60,0043.5772847,S,00847.6088475,E,4,28,0.5,2.0481,M,0.000,M,8.6,0004*58
@SIC,,GET,DATA.DEEP,OK,0.00*13
@SIC,,GET,DATA.DEEP,OK,0.00*13
$GPGGA,083621.80,0043.5772874,S,00847.6088455,E,4,28,0.5,2.0500,M,0.000,M,8.8,0004*52
@SIC,,GET,DATA.DEEP,OK,0.00*13
$GPGGA,083622.00,0043.5772799,S,00847.6088595,E,4,28,0.5,2.0459,M,0.000,M,9.0,0004*5C
@SIC,,GET,DATA.DEEP,OK,0.00*13
@SIC,,GET,DATA.DEEP,OK,0.00*13
$GPGGA,083622.20,0043.5772734,S,00847.6088839,E,4,28,0.5,2.0406,M,0.000,M,9.2,0004*5A
$GPHDT,167.0970,T*0B
$GPZDA,083622.00,21,04,2026,,*6A
@SIC,,GET,DATA.DEEP,OK,0.00*13
$GPGGA,083622.40,0043.5772694,S,00847.6088922,E,4,28,0.5,2.0375,M,0.000,M,0.4,0004*50
@SIC,,GET,DATA.DEEP,OK,0.00*13
$GPGGA,083622.60,0043.5772698,S,00847.6088949,E,4,28,0.5,2.0325,M,0.000,M,0.6,0004*54
@SIC,,GET,DATA.DEEP,OK,0.00*13
@SIC,,GET,DATA.DEEP,OK,0.00*13
$GPGGA,083622.80,0043.5772717,S,00847.6088932,E,4,28,0.5,2.0281,M,0.000,M,0.8,0004*51
@SIC,,GET,DATA.DEEP,OK,0.00*13
$GPGGA,083623.00,0043.5772733,S,00847.6088936,E,4,28,0.5,2.0303,M,0.000,M,1.0,0004*58
$GPZDA,083623.00,21,04,2026,,*6B
@SIC,,GET,DATA.DEEP,OK,0.00*13
@SIC,,GET,DATA.DEEP,OK,0.00*13
$GPGGA,083623.20,0043.5772737,S,00847.6088928,E,4,28,0.5,2.0309,M,0.000,M,1.2,0004*59
@SIC,,GET,DATA.DEEP,OK,0.41*16
@SIC,,GET,DATA.DEEP,OK,0.00*13
$GPGGA,083623.40,0043.5772728,S,00847.6088922,E,4,28,0.5,2.0317,M,0.000,M,1.4,0004*52
@SIC,,GET,DATA.DEEP,OK,0.00*13
@SIC,,GET,DATA.DEEP,OK,0.00*13
$GPGGA,083623.60,0043.5772718,S,00847.6088923,E,4,28,0.5,2.0325,M,0.000,M,1.6,0004*51
@SIC,,GET,DATA.DEEP,OK,0.00*13
$GPGGA,083623.80,0043.5772723,S,00847.6088925,E,4,28,0.5,2.0332,M,0.000,M,1.8,0004*59
@SIC,,GET,DATA.DEEP,OK,0.00*13
@SIC,,GET,DATA.DEEP,OK,0.00*13
$GPGGA,083624.00,0043.5772715,S,00847.6088933,E,4,28,0.5,2.0360,M,0.000,M,2.0,0004*58
$GPZDA,083624.00,21,04,2026,,*6C
@SIC,,GET,DATA.DEEP,OK,0.00*13
$GPGGA,083624.20,0043.5772715,S,00847.6088918,E,4,28,0.5,2.0389,M,0.000,M,2.2,0004*56
@SIC,,GET,DATA.DEEP,OK,0.00*13
@SIC,,GET,DATA.DEEP,OK,0.00*13
$GPGGA,083624.40,0043.5772729,S,00847.6088904,E,4,28,0.5,2.0404,M,0.000,M,2.4,0004*56
@SIC,,GET,DATA.DEEP,OK,0.00*13
$GPGGA,083624.60,0043.5772711,S,00847.6088907,E,4,28,0.5,2.0436,M,0.000,M,2.6,0004*5F
@SIC,,GET,DATA.DEEP,OK,0.00*13
@SIC,,GET,DATA.DEEP,OK,0.00*13
$GPGGA,083624.80,0043.5772706,S,00847.6088890,E,4,28,0.5,2.0445,M,0.000,M,2.8,0004*52
@SIC,,GET,DATA.DEEP,OK,0.00*13
$GPGGA,083625.00,0043.5772707,S,00847.6088898,E,4,28,0.5,2.0441,M,0.000,M,3.0,0004*5F
@SIC,,GET,DATA.DEEP,OK,0.00*13
@SIC,,GET,DATA.DEEP,OK,0.00*13
$GPGGA,083625.20,0043.5772706,S,00847.6088898,E,4,28,0.5,2.0450,M,0.000,M,3.2,0004*5E
$GPHDT,173.2112,T*00
$GPZDA,083625.00,21,04,2026,,*6D
@SIC,,GET,DATA.DEEP,OK,0.00*13
@SIC,,GET,DATA.DEEP,OK,0.00*13
@SIC,,GET,DATA.DEEP,OK,0.00*13
@SIC,,GET,DATA.DEEP,OK,0.00*13
@SIC,,GET,DATA.DEEP,OK,0.00*13
@SIC,,GET,DATA.DEEP,OK,0.00*13
@SIC,,GET,DATA.DEEP,OK,0.00*13
@SIC,,GET,DATA.DEEP,OK,0.00*13
@SIC,,GET,DATA.DEEP,OK,0.00*13
@SIC,,GET,DATA.DEEP,OK,0.00*13
@SIC,,GET,DATA.DEEP,OK,0.00*13
@SIC,,GET,DATA.DEEP,OK,0.00*13
@SIC,,GET,DATA.DEEP,OK,0.00*13
$GPGGA,083630.20,0043.5770559,S,00847.6094442,E,4,27,0.5,1.9409,M,0.000,M,8.2,0004*54
$GPHDT,56.4308,T*39
$GPZDA,083629.00,21,04,2026,,*61
$GPGGA,083630.40,0043.5769995,S,00847.6094941,E,4,28,0.5,1.9433,M,0.000,M,8.4,0004*58
@SIC,,GET,DATA.DEEP,OK,0.38*18
@SIC,,GET,DATA.DEEP,OK,0.41*16
$GPGGA,083630.60,0043.5769512,S,00847.6095407,E,4,28,0.5,1.9518,M,0.000,M,8.6,0004*5D
@SIC,,GET,DATA.DEEP,OK,0.35*15
$GPGGA,083630.80,0043.5769093,S,00847.6095709,E,4,28,0.5,1.9513,M,0.000,M,8.8,0004*57
@SIC,,GET,DATA.DEEP,OK,0.42*15
@SIC,,GET,DATA.DEEP,OK,0.35*15
$GPGGA,083631.00,0043.5768602,S,00847.6096005,E,4,28,0.5,1.9480,M,0.000,M,9.0,0004*5B
@SIC,,GET,DATA.DEEP,OK,0.44*13
$GPGGA,083631.20,0043.5768048,S,00847.6096329,E,4,28,0.5,1.9569,M,0.000,M,9.2,0004*58
$GPHDT,47.3669,T*3C
@SIC,,GET,DATA.DEEP,OK,0.48*1f
@SIC,,GET,DATA.DEEP,OK,0.32*12
$GPGGA,083631.40,0043.5767576,S,00847.6096662,E,4,28,0.5,1.9689,M,0.000,M,0.4,0004*51
@SIC,,GET,DATA.DEEP,OK,0.85*1e
$GPGGA,083631.60,0043.5767137,S,00847.6096945,E,4,28,0.5,1.9745,M,0.000,M,0.6,0004*5B
@SIC,,GET,DATA.DEEP,OK,0.38*18
@SIC,,GET,DATA.DEEP,OK,0.32*12
$GPGGA,083631.80,0043.5766688,S,00847.6097230,E,4,28,0.5,1.9796,M,0.000,M,0.8,0004*5F
@SIC,,GET,DATA.DEEP,OK,0.87*1c
$GPGGA,083632.00,0043.5766263,S,00847.6097573,E,4,28,0.5,1.9724,M,0.000,M,1.0,0004*55
$GPZDA,083632.00,21,04,2026,,*6B
@SIC,,GET,DATA.DEEP,OK,0.38*18
@SIC,,GET,DATA.DEEP,OK,0.32*12
$GPGGA,083632.20,0043.5765853,S,00847.6097884,E,4,28,0.5,1.9644,M,0.000,M,1.2,0004*5D
@SIC,,GET,DATA.DEEP,OK,0.38*18
$GPGGA,083632.40,0043.5765225,S,00847.6098365,E,4,28,0.5,2.0087,M,0.000,M,1.4,0004*5E
@SIC,,GET,DATA.DEEP,OK,0.39*19
@SIC,,GET,DATA.DEEP,OK,0.35*15
$GPGGA,083632.60,0043.5764722,S,00847.6098651,E,4,28,0.5,2.0102,M,0.000,M,1.6,0004*53
@SIC,,GET,DATA.DEEP,OK,0.41*16
$GPGGA,083632.80,0043.5764279,S,00847.6098885,E,4,28,0.5,2.0165,M,0.000,M,1.8,0004*5E
@SIC,,GET,DATA.DEEP,OK,0.39*19
@SIC,,GET,DATA.DEEP,OK,0.38*18
$GPGGA,083633.00,0043.5763838,S,00847.6099159,E,4,28,0.5,2.0237,M,0.000,M,2.0,0004*59
$GPZDA,083633.00,21,04,2026,,*6A
@SIC,,GET,DATA.DEEP,OK,0.39*19
$GPGGA,083633.20,0043.5763383,S,00847.6099402,E,4,28,0.5,2.0246,M,0.000,M,2.2,0004*5F
@SIC,,GET,DATA.DEEP,OK,0.44*13
$GPGGA,083633.40,0043.5763035,S,00847.6099656,E,4,28,0.5,2.0170,M,0.000,M,2.4,0004*54
@SIC,,GET,DATA.DEEP,OK,0.37*17
@SIC,,GET,DATA.DEEP,OK,0.41*16
$GPGGA,083633.60,0043.5762648,S,00847.6099909,E,4,28,0.5,2.0075,M,0.000,M,0.6,0004*5A
@SIC,,GET,DATA.DEEP,OK,0.41*16
$GPGGA,083633.80,0043.5762192,S,00847.6100165,E,4,28,0.5,2.0037,M,0.000,M,0.8,0004*5F
@SIC,,GET,DATA.DEEP,OK,0.39*19
@SIC,,GET,DATA.DEEP,OK,0.44*13
$GPGGA,083634.00,0043.5761743,S,00847.6100432,E,4,28,0.5,2.0055,M,0.000,M,1.0,0004*53
$GPZDA,083634.00,21,04,2026,,*6D
@SIC,,GET,DATA.DEEP,OK,0.44*13
@SIC,,GET,DATA.DEEP,OK,0.42*15
$GPGGA,083634.20,0043.5761373,S,00847.6100699,E,4,28,0.5,2.0077,M,0.000,M,1.2,0004*57
@SIC,,GET,DATA.DEEP,OK,0.42*15
$GPGGA,083634.40,0043.5761030,S,00847.6100974,E,4,28,0.5,2.0060,M,0.000,M,1.4,0004*59
@SIC,,GET,DATA.DEEP,OK,0.44*13
$GPGGA,083634.60,0043.5760660,S,00847.6101192,E,4,28,0.5,1.9961,M,0.000,M,1.6,0004*58
@SIC,,GET,DATA.DEEP,OK,0.44*13
@SIC,,GET,DATA.DEEP,OK,0.45*12
$GPGGA,083634.80,0043.5760310,S,00847.6101343,E,4,28,0.5,1.9935,M,0.000,M,1.8,0004*55
@SIC,,GET,DATA.DEEP,OK,0.48*1f
$GPGGA,083635.00,0043.5759941,S,00847.6101527,E,4,28,0.5,1.9979,M,0.000,M,2.0,0004*5F
@SIC,,GET,DATA.DEEP,OK,0.50*16
@SIC,,GET,DATA.DEEP,OK,0.50*16
$GPGGA,083635.20,0043.5759578,S,00847.6101763,E,4,28,0.5,2.0070,M,0.000,M,2.2,0004*51
$GPHDT,47.4132,T*32
@SIC,,GET,DATA.DEEP,OK,0.48*1f
$GPGGA,083635.40,0043.5759268,S,00847.6102062,E,4,28,0.5,2.0092,M,0.000,M,2.4,0004*5E
@SIC,,GET,DATA.DEEP,OK,0.48*1f
@SIC,,GET,DATA.DEEP,OK,0.47*10
$GPGGA,083635.60,0043.5759055,S,00847.6102297,E,4,28,0.5,2.0049,M,0.000,M,0.6,0004*5E
@SIC,,GET,DATA.DEEP,OK,0.51*17
$GPGGA,083635.80,0043.5758821,S,00847.6102482,E,4,28,0.5,1.9975,M,0.000,M,0.8,0004*5A
@SIC,,GET,DATA.DEEP,OK,0.51*17
@SIC,,GET,DATA.DEEP,OK,0.53*15
$GPGGA,083636.00,0043.5758523,S,00847.6102700,E,4,28,0.5,1.9994,M,0.000,M,1.0,0004*51
$GPZDA,083636.00,21,04,2026,,*6F
@SIC,,GET,DATA.DEEP,OK,0.54*12
@SIC,,GET,DATA.DEEP,OK,0.56*10
$GPGGA,083636.20,0043.5757979,S,00847.6103156,E,4,28,0.5,2.0047,M,0.000,M,1.2,0004*54
@SIC,,GET,DATA.DEEP,OK,0.53*15
$GPGGA,083636.40,0043.5757692,S,00847.6103371,E,4,28,0.5,2.0113,M,0.000,M,1.4,0004*59
@SIC,,GET,DATA.DEEP,OK,0.53*15
$GPGGA,083636.60,0043.5757433,S,00847.6103577,E,4,28,0.5,2.0075,M,0.000,M,1.6,0004*51
@SIC,,GET,DATA.DEEP,OK,0.54*12
@SIC,,GET,DATA.DEEP,OK,0.54*12
$GPGGA,083636.80,0043.5757175,S,00847.6103756,E,4,28,0.5,2.0050,M,0.000,M,1.8,0004*50
@SIC,,GET,DATA.DEEP,OK,0.56*10
$GPGGA,083637.00,0043.5756912,S,00847.6104008,E,4,28,0.5,2.0039,M,0.000,M,2.0,0004*5E
$GPHDT,49.9615,T*33
$GPZDA,083637.00,21,04,2026,,*6E
@SIC,,GET,DATA.DEEP,OK,0.59*1f
@SIC,,GET,DATA.DEEP,OK,0.56*10
$GPGGA,083637.20,0043.5756578,S,00847.6104245,E,4,28,0.5,1.9950,M,0.000,M,2.2,0004*59
@SIC,,GET,DATA.DEEP,OK,0.56*10
$GPGGA,083637.40,0043.5756288,S,00847.6104463,E,4,28,0.5,1.9940,M,0.000,M,2.4,0004*52
@SIC,,GET,DATA.DEEP,OK,0.59*1f
@SIC,,GET,DATA.DEEP,OK,0.60*15
$GPGGA,083637.60,0043.5756045,S,00847.6104649,E,4,28,0.5,1.9945,M,0.000,M,2.6,0004*5E
@SIC,,GET,DATA.DEEP,OK,0.62*17
$GPGGA,083637.80,0043.5755831,S,00847.6104898,E,4,28,0.5,1.9988,M,0.000,M,0.8,0004*57
@SIC,,GET,DATA.DEEP,OK,0.65*10
@SIC,,GET,DATA.DEEP,OK,0.60*15
$GPGGA,083638.00,0043.5755626,S,00847.6105135,E,4,28,0.5,1.9974,M,0.000,M,1.0,0004*5D
$GPZDA,083638.00,21,04,2026,,*61
@SIC,,GET,DATA.DEEP,OK,0.59*1f
@SIC,,GET,DATA.DEEP,OK,0.62*17
$GPGGA,083638.20,0043.5755128,S,00847.6105605,E,4,28,0.5,2.0279,M,0.000,M,1.2,0004*5C
$GPGGA,083638.40,0043.5754927,S,00847.6105744,E,4,28,0.5,2.0128,M,0.000,M,1.4,0004*59
@SIC,,GET,DATA.DEEP,OK,0.62*17
@SIC,,GET,DATA.DEEP,OK,0.62*17
$GPGGA,083638.60,0043.5754689,S,00847.6105894,E,4,28,0.5,2.0102,M,0.000,M,1.6,0004*58
@SIC,,GET,DATA.DEEP,OK,0.65*10
$GPGGA,083638.80,0043.5754423,S,00847.6106062,E,4,28,0.5,2.0065,M,0.000,M,1.8,0004*58
@SIC,,GET,DATA.DEEP,OK,0.63*16
@SIC,,GET,DATA.DEEP,OK,0.65*10
$GPGGA,083639.00,0043.5754258,S,00847.6106259,E,4,28,0.5,2.0075,M,0.000,M,2.0,0004*5B
@SIC,,GET,DATA.DEEP,OK,0.66*13
$GPGGA,083639.20,0043.5754114,S,00847.6106422,E,4,28,0.5,2.0053,M,0.000,M,2.2,0004*5E
$GPHDT,53.6298,T*36
$GPZDA,083639.00,21,04,2026,,*60
@SIC,,GET,DATA.DEEP,OK,0.68*1d
@SIC,,GET,DATA.DEEP,OK,0.66*13
$GPGGA,083639.40,0043.5753992,S,00847.6106567,E,4,28,0.5,2.0098,M,0.000,M,2.4,0004*58
@SIC,,GET,DATA.DEEP,OK,0.68*1d
$GPGGA,083639.60,0043.5753821,S,00847.6106722,E,4,28,0.5,2.0074,M,0.000,M,2.6,0004*50
@SIC,,GET,DATA.DEEP,OK,0.65*10
@SIC,,GET,DATA.DEEP,OK,0.65*10
$GPGGA,083639.80,0043.5753646,S,00847.6106895,E,4,28,0.5,2.0059,M,0.000,M,2.8,0004*53
@SIC,,GET,DATA.DEEP,OK,0.68*1d
$GPGGA,083640.00,0043.5753453,S,00847.6107044,E,4,28,0.5,2.0005,M,0.000,M,3.0,0004*56
@SIC,,GET,DATA.DEEP,OK,0.65*10
@SIC,,GET,DATA.DEEP,OK,0.66*13
$GPGGA,083640.20,0043.5753262,S,00847.6107217,E,4,28,0.5,1.9913,M,0.000,M,3.2,0004*52
$GPHDT,53.4818,T*36
$GPZDA,083640.00,21,04,2026,,*6E
@SIC,,GET,DATA.DEEP,OK,0.66*13
@SIC,,GET,DATA.DEEP,OK,0.66*13
@SIC,,GET,DATA.DEEP,OK,0.66*13
@SIC,,GET,DATA.DEEP,OK,0.68*1d
@SIC,,GET,DATA.DEEP,OK,0.68*1d
@SIC,,GET,DATA.DEEP,OK,0.69*1c
@SIC,,GET,DATA.DEEP,OK,0.71*15
@SIC,,GET,DATA.DEEP,OK,0.71*15
@SIC,,GET,DATA.DEEP,OK,0.72*16
@SIC,,GET,DATA.DEEP,OK,0.74*10
@SIC,,GET,DATA.DEEP,OK,0.74*10
@SIC,,GET,DATA.DEEP,OK,0.72*16
@SIC,,GET,DATA.DEEP,OK,0.74*10
@SIC,,GET,DATA.DEEP,OK,0.74*10
$GPGGA,083645.20,0043.5749536,S,00847.6110910,E,4,28,0.5,1.9607,M,0.000,M,8.2,0004*51
$GPHDT,57.9699,T*38
$GPZDA,083644.00,21,04,2026,,*6A
@SIC,,GET,DATA.DEEP,OK,0.78*1c
$GPGGA,083645.40,0043.5749451,S,00847.6111014,E,4,28,0.5,1.9488,M,0.000,M,8.4,0004*58
@SIC,,GET,DATA.DEEP,OK,0.82*19
$GPGGA,083645.60,0043.5749325,S,00847.6111087,E,4,28,0.5,1.9494,M,0.000,M,8.6,0004*5B
@SIC,,GET,DATA.DEEP,OK,0.84*1f
