
$GPGGA,091811.80,0043.4609638,S,00847.4971189,E,4,29,0.5,1.7773,M,0.000,M,0.8,0004*54
@SIC,,GET,DATA.DEEP,OK,0.59*1f
@SIC,,GET,DATA.DEEP,OK,0.57*11
$GPGGA,091812.00,0043.4609619,S,00847.4972279,E,4,29,0.5,1.7629,M,0.000,M,1.0,0004*54
$GPZDA,091812.00,21,04,2026,,*64
@SIC,,GET,DATA.DEEP,OK,0.57*11
$GPGGA,091812.20,0043.4609469,S,00847.4973496,E,4,29,0.5,1.7617,M,0.000,M,1.2,0004*5A
@SIC,,GET,DATA.DEEP,OK,0.63*16
@SIC,,GET,DATA.DEEP,OK,0.59*1f
$GPGGA,091812.40,0043.4609420,S,00847.4974653,E,4,29,0.5,1.7503,M,0.000,M,1.4,0004*5D
@SIC,,GET,DATA.DEEP,OK,0.57*11
$GPGGA,091812.60,0043.4609332,S,00847.4975611,E,4,29,0.5,1.7319,M,0.000,M,1.6,0004*53
@SIC,,GET,DATA.DEEP,OK,0.62*17
@SIC,,GET,DATA.DEEP,OK,0.65*10
$GPGGA,091812.80,0043.4609174,S,00847.4976391,E,4,29,0.5,1.7327,M,0.000,M,1.8,0004*50
@SIC,,GET,DATA.DEEP,OK,0.66*13
$GPGGA,091813.00,0043.4608911,S,00847.4977189,E,4,29,0.5,1.7894,M,0.000,M,2.0,0004*51
@SIC,,GET,DATA.DEEP,OK,0.65*10
@SIC,,GET,DATA.DEEP,OK,1.37*16
$GPGGA,091813.20,0043.4608666,S,00847.4978005,E,4,29,0.5,1.7873,M,0.000,M,2.2,0004*5D
$GPHDT,303.6071,T*05
$GPZDA,091813.00,21,04,2026,,*65
@SIC,,GET,DATA.DEEP,OK,0.56*10
$GPGGA,091813.40,0043.4608447,S,00847.4978734,E,4,29,0.5,1.7140,M,0.000,M,2.4,0004*50
@SIC,,GET,DATA.DEEP,OK,0.59*1f
@SIC,,GET,DATA.DEEP,OK,0.62*17
$GPGGA,091813.60,0043.4608158,S,00847.4979425,E,4,29,0.5,1.6726,M,0.000,M,0.6,0004*5C
@SIC,,GET,DATA.DEEP,OK,0.63*16
$GPGGA,091813.80,0043.4607818,S,00847.4980115,E,4,29,0.5,1.6779,M,0.000,M,0.8,0004*54
@SIC,,GET,DATA.DEEP,OK,0.69*1c
@SIC,,GET,DATA.DEEP,OK,0.71*15
$GPGGA,091814.00,0043.4607559,S,00847.4980770,E,4,29,0.5,1.6925,M,0.000,M,1.0,0004*58
$GPZDA,091814.00,21,04,2026,,*62
@SIC,,GET,DATA.DEEP,OK,0.72*16
$GPGGA,091814.20,0043.4607333,S,00847.4981374,E,4,29,0.5,1.7477,M,0.000,M,1.2,0004*58
@SIC,,GET,DATA.DEEP,OK,0.74*10
@SIC,,GET,DATA.DEEP,OK,0.72*16
$GPGGA,091814.40,0043.4607063,S,00847.4981912,E,4,29,0.5,1.7841,M,0.000,M,1.4,0004*5D
@SIC,,GET,DATA.DEEP,OK,0.72*16
$GPGGA,091814.60,0043.4606797,S,00847.4982392,E,4,29,0.5,1.7705,M,0.000,M,1.6,0004*5E
@SIC,,GET,DATA.DEEP,OK,0.69*1c
$GPGGA,091814.80,0043.4606527,S,00847.4982787,E,4,29,0.5,1.7518,M,0.000,M,1.8,0004*59
@SIC,,GET,DATA.DEEP,OK,0.69*1c
@SIC,,GET,DATA.DEEP,OK,0.72*16
$GPGGA,091815.00,0043.4606195,S,00847.4983210,E,4,29,0.5,1.7471,M,0.000,M,2.0,0004*52
$GPZDA,091815.00,21,04,2026,,*63
@SIC,,GET,DATA.DEEP,OK,0.72*16
$GPGGA,091815.20,0043.4605902,S,00847.4983700,E,4,29,0.5,1.7509,M,0.000,M,2.2,0004*5D
$GPHDT,43.6599,T*31
@SIC,,GET,DATA.DEEP,OK,0.72*16
@SIC,,GET,DATA.DEEP,OK,0.74*10
$GPGGA,091815.40,0043.4605688,S,00847.4984178,E,4,29,0.5,1.7476,M,0.000,M,2.4,0004*57
@SIC,,GET,DATA.DEEP,OK,0.72*16
$GPGGA,091815.60,0043.4605414,S,00847.4984513,E,4,29,0.5,1.7446,M,0.000,M,0.6,0004*58
@SIC,,GET,DATA.DEEP,OK,0.72*16
@SIC,,GET,DATA.DEEP,OK,0.75*11
$GPGGA,091815.80,0043.4605063,S,00847.4984806,E,4,29,0.5,1.7452,M,0.000,M,0.8,0004*50
@SIC,,GET,DATA.DEEP,OK,0.75*11
$GPGGA,091816.00,0043.4604759,S,00847.4985196,E,4,29,0.5,1.7524,M,0.000,M,1.0,0004*5C
$GPZDA,091816.00,21,04,2026,,*60
@SIC,,GET,DATA.DEEP,OK,0.75*11
@SIC,,GET,DATA.DEEP,OK,0.76*12
$GPGGA,091816.20,0043.4604567,S,00847.4985593,E,4,29,0.5,1.7610,M,0.000,M,1.2,0004*56
@SIC,,GET,DATA.DEEP,OK,0.76*12
$GPGGA,091816.40,0043.4604351,S,00847.4985877,E,4,28,0.5,1.7556,M,0.000,M,1.4,0004*52
@SIC,,GET,DATA.DEEP,OK,0.78*1c
@SIC,,GET,DATA.DEEP,OK,0.75*11
$GPGGA,091816.60,0043.4604034,S,00847.4986076,E,4,28,0.5,1.7417,M,0.000,M,1.6,0004*5C
@SIC,,GET,DATA.DEEP,OK,0.74*10
$GPGGA,091816.80,0043.4603669,S,00847.4986259,E,4,28,0.5,1.7280,M,0.000,M,1.8,0004*52
@SIC,,GET,DATA.DEEP,OK,0.71*15
@SIC,,GET,DATA.DEEP,OK,0.72*16
$GPGGA,091817.00,0043.4603434,S,00847.4986589,E,4,28,0.5,1.7229,M,0.000,M,1.0,0004*50
$GPZDA,091817.00,21,04,2026,,*61
@SIC,,GET,DATA.DEEP,OK,0.76*12
$GPGGA,091817.20,0043.4603246,S,00847.4986925,E,4,28,0.5,1.7248,M,0.000,M,1.2,0004*5E
@SIC,,GET,DATA.DEEP,OK,0.75*11
@SIC,,GET,DATA.DEEP,OK,0.74*10
$GPGGA,091817.40,0043.4603013,S,00847.4987125,E,4,28,0.5,1.7223,M,0.000,M,0.4,0004*59
@SIC,,GET,DATA.DEEP,OK,0.74*10
$GPGGA,091817.60,0043.4602714,S,00847.4987285,E,4,28,0.5,1.7291,M,0.000,M,0.6,0004*58
@SIC,,GET,DATA.DEEP,OK,0.74*10
@SIC,,GET,DATA.DEEP,OK,0.74*10
$GPGGA,091817.80,0043.4602426,S,00847.4987501,E,4,28,0.5,1.7385,M,0.000,M,0.8,0004*55
@SIC,,GET,DATA.DEEP,OK,0.72*16
$GPGGA,091818.00,0043.4602212,S,00847.4987811,E,4,28,0.5,1.7402,M,0.000,M,1.0,0004*5E
@SIC,,GET,DATA.DEEP,OK,0.72*16
@SIC,,GET,DATA.DEEP,OK,0.74*10
$GPGGA,091818.20,0043.4602036,S,00847.4988107,E,4,28,0.5,1.7361,M,0.000,M,1.2,0004*59
$GPHDT,29.8218,T*3D
$GPZDA,091818.00,21,04,2026,,*6E
@SIC,,GET,DATA.DEEP,OK,0.78*1c
$GPGGA,091818.40,0043.4601837,S,00847.4988298,E,4,28,0.5,1.7408,M,0.000,M,1.4,0004*5E
@SIC,,GET,DATA.DEEP,OK,0.79*1d
@SIC,,GET,DATA.DEEP,OK,0.81*1a
$GPGGA,091818.60,0043.4601535,S,00847.4988388,E,4,28,0.5,1.7557,M,0.000,M,1.6,0004*5A
@SIC,,GET,DATA.DEEP,OK,0.78*1c
$GPGGA,091818.80,0043.4601226,S,00847.4988399,E,4,28,0.5,1.7603,M,0.000,M,1.8,0004*5D
@SIC,,GET,DATA.DEEP,OK,0.78*1c
@SIC,,GET,DATA.DEEP,OK,0.75*11
$GPGGA,091819.00,0043.4601066,S,00847.4988441,E,4,28,0.5,1.7503,M,0.000,M,2.0,0004*58
@SIC,,GET,DATA.DEEP,OK,0.74*10
$GPGGA,091819.20,0043.4600873,S,00847.4988603,E,4,28,0.5,1.7408,M,0.000,M,2.2,0004*5B
$GPHDT,27.3679,T*3B
@SIC,,GET,DATA.DEEP,OK,0.74*10
@SIC,,GET,DATA.DEEP,OK,0.75*11
$GPGGA,091819.40,0043.4600576,S,00847.4988774,E,4,28,0.5,1.7389,M,0.000,M,2.4,0004*5C
@SIC,,GET,DATA.DEEP,OK,0.75*11
$GPGGA,091819.60,0043.4600061,S,00847.4989018,E,4,28,0.5,1.7328,M,0.000,M,0.6,0004*5A
@SIC,,GET,DATA.DEEP,OK,0.75*11
@SIC,,GET,DATA.DEEP,OK,0.72*16
$GPGGA,091819.80,0043.4599457,S,00847.4989275,E,4,28,0.5,1.7283,M,0.000,M,0.8,0004*51
@SIC,,GET,DATA.DEEP,OK,0.72*16
$GPGGA,091820.00,0043.4598639,S,00847.4989630,E,4,28,0.5,1.7237,M,0.000,M,1.0,0004*5B
@SIC,,GET,DATA.DEEP,OK,0.74*10
@SIC,,GET,DATA.DEEP,OK,0.69*1c
$GPGGA,091820.20,0043.4597687,S,00847.4990120,E,4,28,0.5,1.7407,M,0.000,M,1.2,0004*5A
$GPHDT,27.7397,T*3A
$GPZDA,091820.00,21,04,2026,,*65
@SIC,,GET,DATA.DEEP,OK,0.69*1c
$GPGGA,091820.40,0043.4596791,S,00847.4990532,E,4,28,0.5,1.7567,M,0.000,M,1.4,0004*5D
@SIC,,GET,DATA.DEEP,OK,0.74*10
@SIC,,GET,DATA.DEEP,OK,0.76*12
$GPGGA,091820.60,0043.4595828,S,00847.4990808,E,4,28,0.5,1.7710,M,0.000,M,1.6,0004*55
@SIC,,GET,DATA.DEEP,OK,0.76*12
$GPGGA,091820.80,0043.4594819,S,00847.4991140,E,4,28,0.5,1.7698,M,0.000,M,1.8,0004*53
@SIC,,GET,DATA.DEEP,OK,0.76*12
$GPGGA,091821.00,0043.4593804,S,00847.4991614,E,4,28,0.5,1.7633,M,0.000,M,2.0,0004*5D
$GPZDA,091821.00,21,04,2026,,*64
@SIC,,GET,DATA.DEEP,OK,0.78*1c
@SIC,,GET,DATA.DEEP,OK,0.78*1c
$GPGGA,091821.20,0043.4592685,S,00847.4992205,E,4,28,0.5,1.7571,M,0.000,M,2.2,0004*59
@SIC,,GET,DATA.DEEP,OK,0.76*12
$GPGGA,091821.40,0043.4591631,S,00847.4992803,E,4,28,0.5,1.7453,M,0.000,M,2.4,0004*58
@SIC,,GET,DATA.DEEP,OK,0.78*1c
@SIC,,GET,DATA.DEEP,OK,0.81*1a
$GPGGA,091821.60,0043.4590560,S,00847.4993353,E,4,29,0.5,1.7526,M,0.000,M,0.6,0004*51
@SIC,,GET,DATA.DEEP,OK,0.84*1f
$GPGGA,091821.80,0043.4589475,S,00847.4994016,E,4,29,0.5,1.7713,M,0.000,M,0.8,0004*5D
@SIC,,GET,DATA.DEEP,OK,0.85*1e
@SIC,,GET,DATA.DEEP,OK,0.85*1e
$GPGGA,091822.00,0043.4588495,S,00847.4994827,E,4,29,0.5,1.7867,M,0.000,M,1.0,0004*56
$GPZDA,091822.00,21,04,2026,,*67
@SIC,,GET,DATA.DEEP,OK,0.79*1d
$GPGGA,091822.20,0043.4587701,S,00847.4995779,E,4,29,0.5,1.7530,M,0.000,M,1.2,0004*5D
@SIC,,GET,DATA.DEEP,OK,0.76*12
@SIC,,GET,DATA.DEEP,OK,0.76*12
$GPGGA,091822.40,0043.4587057,S,00847.4996758,E,4,29,0.5,1.6905,M,0.000,M,1.4,0004*52
@SIC,,GET,DATA.DEEP,OK,0.75*11
$GPGGA,091822.60,0043.4586485,S,00847.4997805,E,4,29,0.5,1.6983,M,0.000,M,1.6,0004*50
@SIC,,GET,DATA.DEEP,OK,0.78*1c
@SIC,,GET,DATA.DEEP,OK,0.82*19
$GPGGA,091822.80,0043.4585882,S,00847.4998933,E,4,29,0.5,1.7539,M,0.000,M,1.8,0004*5F
@SIC,,GET,DATA.DEEP,OK,0.82*19
$GPGGA,091823.00,0043.4585345,S,00847.5000175,E,4,29,0.5,1.7789,M,0.000,M,1.0,0004*54
@SIC,,GET,DATA.DEEP,OK,0.81*1a
@SIC,,GET,DATA.DEEP,OK,0.79*1d
$GPGGA,091823.20,0043.4585053,S,00847.5001403,E,4,29,0.5,1.7902,M,0.000,M,1.2,0004*58
$GPHDT,89.8991,T*3D
$GPZDA,091823.00,21,04,2026,,*66
@SIC,,GET,DATA.DEEP,OK,0.76*12
$GPGGA,091823.40,0043.4584967,S,00847.5002649,E,4,29,0.5,1.7698,M,0.000,M,0.4,0004*55
@SIC,,GET,DATA.DEEP,OK,0.76*12
@SIC,,GET,DATA.DEEP,OK,0.78*1c
$GPGGA,091823.60,0043.4584932,S,00847.5003922,E,4,29,0.5,1.7296,M,0.000,M,0.6,0004*5C
@SIC,,GET,DATA.DEEP,OK,0.81*1a
$GPGGA,091823.80,0043.4584911,S,00847.5005074,E,4,29,0.5,1.7394,M,0.000,M,0.8,0004*52
@SIC,,GET,DATA.DEEP,OK,0.85*1e
@SIC,,GET,DATA.DEEP,OK,0.87*1c
$GPGGA,091824.00,0043.4584956,S,00847.5006319,E,4,29,0.5,1.7974,M,0.000,M,1.0,0004*58
$GPZDA,091824.00,21,04,2026,,*61
@SIC,,GET,DATA.DEEP,OK,0.87*1c
$GPGGA,091824.20,0043.4585098,S,00847.5007554,E,4,29,0.5,1.7953,M,0.000,M,1.2,0004*59
@SIC,,GET,DATA.DEEP,OK,0.85*1e
@SIC,,GET,DATA.DEEP,OK,0.82*19
$GPGGA,091824.40,0043.4585443,S,00847.5008642,E,4,29,0.5,1.7831,M,0.000,M,1.4,0004*55
@SIC,,GET,DATA.DEEP,OK,0.81*1a
$GPGGA,091824.60,0043.4585954,S,00847.5009695,E,4,29,0.5,1.7630,M,0.000,M,1.6,0004*5A
@SIC,,GET,DATA.DEEP,OK,0.82*19
@SIC,,GET,DATA.DEEP,OK,0.79*1d
$GPGGA,091824.80,0043.4586597,S,00847.5010724,E,4,29,0.5,1.7502,M,0.000,M,1.8,0004*5B
@SIC,,GET,DATA.DEEP,OK,0.84*1f
$GPGGA,091825.00,0043.4587305,S,00847.5011803,E,4,29,0.5,1.7568,M,0.000,M,2.0,0004*52
$GPZDA,091825.00,21,04,2026,,*60
@SIC,,GET,DATA.DEEP,OK,0.85*1e
@SIC,,GET,DATA.DEEP,OK,0.85*1e
$GPGGA,091825.20,0043.4587998,S,00847.5012874,E,4,29,0.5,1.7695,M,0.000,M,2.2,0004*5E
@SIC,,GET,DATA.DEEP,OK,0.87*1c
$GPGGA,091825.40,0043.4588866,S,00847.5013807,E,4,29,0.5,1.7712,M,0.000,M,2.4,0004*5A
@SIC,,GET,DATA.DEEP,OK,0.88*13
@SIC,,GET,DATA.DEEP,OK,0.88*13
$GPGGA,091825.60,0043.4589859,S,00847.5014547,E,4,29,0.5,1.7648,M,0.000,M,0.6,0004*55
@SIC,,GET,DATA.DEEP,OK,0.85*1e
$GPGGA,091825.80,0043.4590910,S,00847.5015216,E,4,29,0.5,1.7544,M,0.000,M,0.8,0004*5C
@SIC,,GET,DATA.DEEP,OK,0.85*1e
$GPGGA,091826.00,0043.4591977,S,00847.5015752,E,4,29,0.5,1.7365,M,0.000,M,1.0,0004*5E
$GPZDA,091826.00,21,04,2026,,*63
@SIC,,GET,DATA.DEEP,OK,0.81*1a
@SIC,,GET,DATA.DEEP,OK,0.81*1a
$GPGGA,091826.20,0043.4592923,S,00847.5016122,E,4,29,0.5,1.7372,M,0.000,M,1.2,0004*58
@SIC,,GET,DATA.DEEP,OK,0.81*1a
$GPGGA,091826.40,0043.4593802,S,00847.5016389,E,4,29,0.5,1.7451,M,0.000,M,1.4,0004*5E
@SIC,,GET,DATA.DEEP,OK,0.84*1f
@SIC,,GET,DATA.DEEP,OK,0.85*1e
$GPGGA,091826.60,0043.4594641,S,00847.5016598,E,4,29,0.5,1.7626,M,0.000,M,1.6,0004*54
@SIC,,GET,DATA.DEEP,OK,0.85*1e
$GPGGA,091826.80,0043.4595525,S,00847.5016751,E,4,29,0.5,1.7829,M,0.000,M,1.8,0004*52
@SIC,,GET,DATA.DEEP,OK,0.88*13
@SIC,,GET,DATA.DEEP,OK,0.85*1e
$GPGGA,091827.00,0043.4596350,S,00847.5016887,E,4,29,0.5,1.7735,M,0.000,M,2.0,0004*51
$GPZDA,091827.00,21,04,2026,,*62
@SIC,,GET,DATA.DEEP,OK,0.84*1f
$GPGGA,091827.20,0043.4597113,S,00847.5016982,E,4,29,0.5,1.7630,M,0.000,M,2.2,0004*55
@SIC,,GET,DATA.DEEP,OK,0.82*19
@SIC,,GET,DATA.DEEP,OK,0.81*1a
$GPGGA,091827.40,0043.4597858,S,00847.5017097,E,4,29,0.5,1.7508,M,0.000,M,2.4,0004*57
@SIC,,GET,DATA.DEEP,OK,0.82*19
$GPGGA,091827.60,0043.4598536,S,00847.5017195,E,4,29,0.5,1.7540,M,0.000,M,0.6,0004*50
@SIC,,GET,DATA.DEEP,OK,0.82*19
@SIC,,GET,DATA.DEEP,OK,0.85*1e
$GPGGA,091827.80,0043.4599157,S,00847.5017171,E,4,29,0.5,1.7639,M,0.000,M,0.8,0004*55
@SIC,,GET,DATA.DEEP,OK,0.87*1c
$GPGGA,091828.00,0043.4599779,S,00847.5017094,E,4,29,0.5,1.7760,M,0.000,M,1.0,0004*56
@SIC,,GET,DATA.DEEP,OK,0.85*1e
@SIC,,GET,DATA.DEEP,OK,0.85*1e
$GPGGA,091828.20,0043.4600379,S,00847.5017066,E,4,29,0.5,1.7775,M,0.000,M,1.2,0004*58
$GPHDT,199.8181,T*04
$GPZDA,091828.00,21,04,2026,,*6D
@SIC,,GET,DATA.DEEP,OK,0.84*1f
$GPGGA,091828.40,0043.4601002,S,00847.5017086,E,4,29,0.5,1.7636,M,0.000,M,1.4,0004*5E
@SIC,,GET,DATA.DEEP,OK,0.85*1e
@SIC,,GET,DATA.DEEP,OK,0.84*1f
$GPGGA,091828.60,0043.4601597,S,00847.5017086,E,4,29,0.5,1.7579,M,0.000,M,1.6,0004*5F
@SIC,,GET,DATA.DEEP,OK,0.84*1f
$GPGGA,091828.80,0043.4602198,S,00847.5016916,E,4,29,0.5,1.7639,M,0.000,M,1.8,0004*51
@SIC,,GET,DATA.DEEP,OK,0.85*1e
@SIC,,GET,DATA.DEEP,OK,0.85*1e
$GPGGA,091829.00,0043.4602763,S,00847.5016619,E,4,29,0.5,1.8130,M,0.000,M,1.0,0004*53
$GPZDA,091829.00,21,04,2026,,*6C
@SIC,,GET,DATA.DEEP,OK,0.88*13
$GPGGA,091829.20,0043.4603313,S,00847.5016215,E,4,29,0.5,1.8415,M,0.000,M,1.2,0004*5B
@SIC,,GET,DATA.DEEP,OK,0.91*1b
@SIC,,GET,DATA.DEEP,OK,0.90*1a
$GPGGA,091829.40,0043.4603876,S,00847.5016008,E,4,29,0.5,1.8331,M,0.000,M,0.4,0004*5D
@SIC,,GET,DATA.DEEP,OK,0.88*13
$GPGGA,091829.60,0043.4604456,S,00847.5015907,E,4,29,0.5,1.8141,M,0.000,M,0.6,0004*54
@SIC,,GET,DATA.DEEP,OK,0.88*13
@SIC,,GET,DATA.DEEP,OK,0.85*1e
$GPGGA,091829.80,0043.4605013,S,00847.5015892,E,4,29,0.5,1.7689,M,0.000,M,0.8,0004*51
@SIC,,GET,DATA.DEEP,OK,0.82*19
$GPGGA,091830.00,0043.4605462,S,00847.5015784,E,4,29,0.5,1.7509,M,0.000,M,1.0,0004*59
@SIC,,GET,DATA.DEEP,OK,0.82*19
@SIC,,GET,DATA.DEEP,OK,0.81*1a
$GPGGA,091830.20,0043.4605864,S,00847.5015503,E,4,29,0.5,1.7582,M,0.000,M,1.2,0004*5D
$GPHDT,214.0235,T*06
$GPZDA,091830.00,21,04,2026,,*64
@SIC,,GET,DATA.DEEP,OK,0.84*1f
$GPGGA,091830.40,0043.4606371,S,00847.5015103,E,4,29,0.5,1.7742,M,0.000,M,1.4,0004*5B
@SIC,,GET,DATA.DEEP,OK,0.87*1c
@SIC,,GET,DATA.DEEP,OK,0.87*1c
$GPGGA,091830.60,0043.4607058,S,00847.5014606,E,4,29,0.5,1.7877,M,0.000,M,1.6,0004*58
@SIC,,GET,DATA.DEEP,OK,0.85*1e
$GPGGA,091830.80,0043.4607902,S,00847.5014037,E,4,29,0.5,1.7908,M,0.000,M,1.8,0004*53
@SIC,,GET,DATA.DEEP,OK,0.87*1c
@SIC,,GET,DATA.DEEP,OK,0.88*13
$GPGGA,091831.00,0043.4608819,S,00847.5013440,E,4,29,0.5,1.7975,M,0.000,M,2.0,0004*5C
$GPZDA,091831.00,21,04,2026,,*65
@SIC,,GET,DATA.DEEP,OK,0.87*1c
$GPGGA,091831.20,0043.4609803,S,00847.5012876,E,4,29,0.5,1.7992,M,0.000,M,2.2,0004*57
@SIC,,GET,DATA.DEEP,OK,0.87*1c
$GPGGA,091831.40,0043.4610849,S,00847.5012366,E,4,29,0.5,1.7943,M,0.000,M,2.4,0004*57
@SIC,,GET,DATA.DEEP,OK,0.85*1e
@SIC,,GET,DATA.DEEP,OK,0.84*1f
$GPGGA,091831.60,0043.4611953,S,00847.5011988,E,4,29,0.5,1.7762,M,0.000,M,0.6,0004*5A
@SIC,,GET,DATA.DEEP,OK,0.79*1d
$GPGGA,091831.80,0043.4613086,S,00847.5011773,E,4,29,0.5,1.7367,M,0.000,M,0.8,0004*52
@SIC,,GET,DATA.DEEP,OK,0.78*1c
@SIC,,GET,DATA.DEEP,OK,0.78*1c
$GPGGA,091832.00,0043.4614201,S,00847.5011589,E,4,29,0.5,1.7165,M,0.000,M,1.0,0004*5D
$GPZDA,091832.00,21,04,2026,,*66
@SIC,,GET,DATA.DEEP,OK,0.78*1c
$GPGGA,091832.20,0043.4615319,S,00847.5011336,E,4,29,0.5,1.7269,M,0.000,M,1.2,0004*59
@SIC,,GET,DATA.DEEP,OK,0.82*19
@SIC,,GET,DATA.DEEP,OK,0.84*1f
$GPGGA,091832.40,0043.4616514,S,00847.5011128,E,4,29,0.5,1.7401,M,0.000,M,1.4,0004*54
@SIC,,GET,DATA.DEEP,OK,0.82*19
$GPGGA,091832.60,0043.4617728,S,00847.5010997,E,4,29,0.5,1.7627,M,0.000,M,1.6,0004*53
@SIC,,GET,DATA.DEEP,OK,0.82*19
@SIC,,GET,DATA.DEEP,OK,0.82*19
$GPGGA,091832.80,0043.4618963,S,00847.5010942,E,4,29,0.5,1.7651,M,0.000,M,1.8,0004*54
@SIC,,GET,DATA.DEEP,OK,0.82*19
$GPGGA,091833.00,0043.4620199,S,00847.5011011,E,4,29,0.5,1.7691,M,0.000,M,2.0,0004*52
@SIC,,GET,DATA.DEEP,OK,0.82*19
@SIC,,GET,DATA.DEEP,OK,0.82*19
$GPGGA,091833.20,0043.4621363,S,00847.5011169,E,4,29,0.5,1.7734,M,0.000,M,2.2,0004*54
$GPHDT,159.2773,T*09
$GPZDA,091833.00,21,04,2026,,*67
@SIC,,GET,DATA.DEEP,OK,1.62*16
$GPGGA,091833.40,0043.4622492,S,00847.5011390,E,4,29,0.5,1.7686,M,0.000,M,2.4,0004*52
@SIC,,GET,DATA.DEEP,OK,0.81*1a
@SIC,,GET,DATA.DEEP,OK,0.78*1c
$GPGGA,091833.60,0043.4623579,S,00847.5011770,E,4,29,0.5,1.7592,M,0.000,M,0.6,0004*59
@SIC,,GET,DATA.DEEP,OK,0.76*12
$GPGGA,091833.80,0043.4624603,S,00847.5012236,E,4,29,0.5,1.7414,M,0.000,M,0.8,0004*5B
@SIC,,GET,DATA.DEEP,OK,0.76*12
@SIC,,GET,DATA.DEEP,OK,0.76*12
$GPGGA,091834.00,0043.4625673,S,00847.5012763,E,4,29,0.5,1.7351,M,0.000,M,1.0,0004*58
$GPZDA,091834.00,21,04,2026,,*60
@SIC,,GET,DATA.DEEP,OK,0.76*12
$GPGGA,091834.20,0043.4626782,S,00847.5013258,E,4,29,0.5,1.7411,M,0.000,M,1.2,0004*5B
@SIC,,GET,DATA.DEEP,OK,0.81*1a
@SIC,,GET,DATA.DEEP,OK,0.81*1a
$GPGGA,091834.40,0043.4627821,S,00847.5013829,E,4,29,0.5,1.7471,M,0.000,M,1.4,0004*56
@SIC,,GET,DATA.DEEP,OK,0.81*1a
$GPGGA,091834.60,0043.4628743,S,00847.5014426,E,4,29,0.5,1.7524,M,0.000,M,1.6,0004*57
@SIC,,GET,DATA.DEEP,OK,0.81*1a
@SIC,,GET,DATA.DEEP,OK,0.84*1f
$GPGGA,091834.80,0043.4629665,S,00847.5015000,E,4,29,0.5,1.7560,M,0.000,M,1.8,0004*52
@SIC,,GET,DATA.DEEP,OK,0.82*19
$GPGGA,091835.00,0043.4630560,S,00847.5015656,E,4,29,0.5,1.7632,M,0.000,M,1.0,0004*5C
$GPZDA,091835.00,21,04,2026,,*61
@SIC,,GET,DATA.DEEP,OK,0.81*1a
@SIC,,GET,DATA.DEEP,OK,0.76*12
$GPGGA,091835.20,0043.4631283,S,00847.5016346,E,4,29,0.5,1.7596,M,0.000,M,1.2,0004*5D
@SIC,,GET,DATA.DEEP,OK,0.74*10
$GPGGA,091835.40,0043.4631830,S,00847.5017005,E,4,29,0.5,1.7231,M,0.000,M,0.4,0004*51
@SIC,,GET,DATA.DEEP,OK,0.74*10
@SIC,,GET,DATA.DEEP,OK,0.78*1c
$GPGGA,091835.60,0043.4632409,S,00847.5017645,E,4,29,0.5,1.7329,M,0.000,M,0.6,0004*5E
@SIC,,GET,DATA.DEEP,OK,0.84*1f
$GPGGA,091835.80,0043.4633064,S,00847.5018243,E,4,29,0.5,1.8012,M,0.000,M,0.8,0004*59
@SIC,,GET,DATA.DEEP,OK,0.87*1c
@SIC,,GET,DATA.DEEP,OK,0.88*13
$GPGGA,091836.00,0043.4633688,S,00847.5018902,E,4,29,0.5,1.8355,M,0.000,M,1.0,0004*51
$GPZDA,091836.00,21,04,2026,,*62
@SIC,,GET,DATA.DEEP,OK,0.87*1c
$GPGGA,091836.20,0043.4634159,S,00847.5019662,E,4,29,0.5,1.8351,M,0.000,M,1.2,0004*51
@SIC,,GET,DATA.DEEP,OK,0.81*1a
$GPGGA,091836.40,0043.4634590,S,00847.5020432,E,4,29,0.5,1.7828,M,0.000,M,1.4,0004*57
@SIC,,GET,DATA.DEEP,OK,0.78*1c
@SIC,,GET,DATA.DEEP,OK,0.76*12
$GPGGA,091836.60,0043.4635054,S,00847.5021179,E,4,29,0.5,1.7330,M,0.000,M,1.6,0004*52
@SIC,,GET,DATA.DEEP,OK,0.78*1c
@SIC,,GET,DATA.DEEP,OK,0.79*1d
$GPGGA,091836.80,0043.4635495,S,00847.5022032,E,4,29,0.5,1.7253,M,0.000,M,1.8,0004*52
@SIC,,GET,DATA.DEEP,OK,0.79*1d
$GPGGA,091837.00,0043.4635870,S,00847.5022958,E,4,29,0.5,1.7274,M,0.000,M,2.0,0004*57
$GPZDA,091837.00,21,04,2026,,*63
@SIC,,GET,DATA.DEEP,OK,0.78*1c
$GPGGA,091837.20,0043.4636134,S,00847.5023757,E,4,29,0.5,1.7269,M,0.000,M,2.2,0004*51
@SIC,,GET,DATA.DEEP,OK,0.79*1d
@SIC,,GET,DATA.DEEP,OK,0.79*1d
$GPGGA,091837.40,0043.4636306,S,00847.5024402,E,4,29,0.5,1.7313,M,0.000,M,2.4,0004*5A
@SIC,,GET,DATA.DEEP,OK,0.82*19
$GPGGA,091837.60,0043.4636483,S,00847.5025040,E,4,29,0.5,1.7503,M,0.000,M,0.6,0004*56
@SIC,,GET,DATA.DEEP,OK,0.84*1f
@SIC,,GET,DATA.DEEP,OK,0.85*1e
$GPGGA,091837.80,0043.4636619,S,00847.5025706,E,4,29,0.5,1.7753,M,0.000,M,0.8,0004*55
@SIC,,GET,DATA.DEEP,OK,0.81*1a
$GPGGA,091838.00,0043.4636797,S,00847.5026467,E,4,29,0.5,1.7807,M,0.000,M,1.0,0004*55
$GPZDA,091838.00,21,04,2026,,*6C
@SIC,,GET,DATA.DEEP,OK,0.82*19
@SIC,,GET,DATA.DEEP,OK,0.76*12
$GPGGA,091838.20,0043.4636980,S,00847.5027088,E,4,29,0.5,1.7157,M,0.000,M,1.2,0004*55
@SIC,,GET,DATA.DEEP,OK,0.76*12
$GPGGA,091838.40,0043.4637100,S,00847.5027617,E,4,29,0.5,1.6756,M,0.000,M,1.4,0004*52
@SIC,,GET,DATA.DEEP,OK,0.81*1a
@SIC,,GET,DATA.DEEP,OK,0.87*1c
$GPGGA,091838.60,0043.4637074,S,00847.5028156,E,4,29,0.5,1.7174,M,0.000,M,1.6,0004*5A
@SIC,,GET,DATA.DEEP,OK,0.85*1e
$GPGGA,091838.80,0043.4636909,S,00847.5028756,E,4,29,0.5,1.7943,M,0.000,M,1.8,0004*52
@SIC,,GET,DATA.DEEP,OK,0.84*1f
@SIC,,GET,DATA.DEEP,OK,0.82*19
$GPGGA,091839.00,0043.4636716,S,00847.5029339,E,4,29,0.5,1.8015,M,0.000,M,2.0,0004*59
$GPZDA,091839.00,21,04,2026,,*6D
@SIC,,GET,DATA.DEEP,OK,0.81*1a
$GPGGA,091839.20,0043.4636638,S,00847.5029876,E,4,29,0.5,1.7894,M,0.000,M,2.2,0004*5A
@SIC,,GET,DATA.DEEP,OK,0.81*1a
@SIC,,GET,DATA.DEEP,OK,0.82*19
$GPGGA,091839.40,0043.4636592,S,00847.5030552,E,4,29,0.5,1.7625,M,0.000,M,2.4,0004*5E
@SIC,,GET,DATA.DEEP,OK,0.82*19
$GPGGA,091839.60,0043.4636524,S,00847.5031273,E,4,29,0.5,1.7302,M,0.000,M,0.6,0004*54
@SIC,,GET,DATA.DEEP,OK,0.84*1f
@SIC,,GET,DATA.DEEP,OK,0.84*1f
$GPGGA,091839.80,0043.4636351,S,00847.5032034,E,4,29,0.5,1.7378,M,0.000,M,0.8,0004*5F
@SIC,,GET,DATA.DEEP,OK,0.81*1a
$GPGGA,091840.00,0043.4636166,S,00847.5032759,E,4,29,0.5,1.7489,M,0.000,M,1.0,0004*53
$GPZDA,091840.00,21,04,2026,,*63
@SIC,,GET,DATA.DEEP,OK,0.82*19
@SIC,,GET,DATA.DEEP,OK,0.84*1f
$GPGGA,091840.20,0043.4636074,S,00847.5033464,E,4,29,0.5,1.7586,M,0.000,M,1.2,0004*53
@SIC,,GET,DATA.DEEP,OK,0.84*1f
$GPGGA,091840.40,0043.4636096,S,00847.5034254,E,4,29,0.5,1.7604,M,0.000,M,1.4,0004*54
@SIC,,GET,DATA.DEEP,OK,0.84*1f
@SIC,,GET,DATA.DEEP,OK,0.82*19
$GPGGA,091840.60,0043.4636170,S,00847.5035193,E,4,29,0.5,1.7589,M,0.000,M,1.6,0004*52
@SIC,,GET,DATA.DEEP,OK,0.84*1f
$GPGGA,091840.80,0043.4636250,S,00847.5036189,E,4,29,0.5,1.7522,M,0.000,M,1.8,0004*5A
@SIC,,GET,DATA.DEEP,OK,0.84*1f
@SIC,,GET,DATA.DEEP,OK,0.85*1e
$GPGGA,091841.00,0043.4636393,S,00847.5037175,E,4,29,0.5,1.7587,M,0.000,M,1.0,0004*58
$GPZDA,091841.00,21,04,2026,,*62
@SIC,,GET,DATA.DEEP,OK,0.85*1e
$GPGGA,091841.20,0043.4636585,S,00847.5038277,E,4,29,0.5,1.7727,M,0.000,M,1.2,0004*5F
@SIC,,GET,DATA.DEEP,OK,0.85*1e
@SIC,,GET,DATA.DEEP,OK,0.84*1f
$GPGGA,091841.40,0043.4636782,S,00847.5039264,E,4,29,0.5,1.7747,M,0.000,M,0.4,0004*5E
@SIC,,GET,DATA.DEEP,OK,0.82*19
$GPGGA,091841.60,0043.4637064,S,00847.5040024,E,4,29,0.5,1.7771,M,0.000,M,0.6,0004*5D
@SIC,,GET,DATA.DEEP,OK,0.88*13
@SIC,,GET,DATA.DEEP,OK,0.87*1c
$GPGGA,091841.80,0043.4637408,S,00847.5040719,E,4,29,0.5,1.7830,M,0.000,M,0.8,0004*50
@SIC,,GET,DATA.DEEP,OK,0.85*1e
$GPGGA,091842.00,0043.4637783,S,00847.5041516,E,4,29,0.5,1.7831,M,0.000,M,1.0,0004*5F
$GPZDA,091842.00,21,04,2026,,*61
@SIC,,GET,DATA.DEEP,OK,0.82*19
@SIC,,GET,DATA.DEEP,OK,0.79*1d
$GPGGA,091842.20,0043.4638056,S,00847.5042344,E,4,29,0.5,1.7649,M,0.000,M,1.2,0004*5C
@SIC,,GET,DATA.DEEP,OK,0.78*1c
$GPGGA,091842.40,0043.4638367,S,00847.5043007,E,4,29,0.5,1.7428,M,0.000,M,1.4,0004*5D
@SIC,,GET,DATA.DEEP,OK,0.79*1d
$GPGGA,091842.60,0043.4638764,S,00847.5043603,E,4,29,0.5,1.7287,M,0.000,M,1.6,0004*5B
@SIC,,GET,DATA.DEEP,OK,0.81*1a
@SIC,,GET,DATA.DEEP,OK,0.82*19
$GPGGA,091842.80,0043.4639156,S,00847.5044192,E,4,29,0.5,1.7667,M,0.000,M,1.8,0004*5F
@SIC,,GET,DATA.DEEP,OK,0.84*1f
$GPGGA,091843.00,0043.4639579,S,00847.5044692,E,4,29,0.5,1.7819,M,0.000,M,2.0,0004*54
@SIC,,GET,DATA.DEEP,OK,0.84*1f
@SIC,,GET,DATA.DEEP,OK,0.87*1c
$GPGGA,091843.20,0043.4639962,S,00847.5044999,E,4,29,0.5,1.7858,M,0.000,M,2.2,0004*53
$GPHDT,149.8989,T*09
$GPZDA,091843.00,21,04,2026,,*60
@SIC,,GET,DATA.DEEP,OK,0.87*1c
$GPGGA,091843.40,0043.4640468,S,00847.5045237,E,4,29,0.5,1.7835,M,0.000,M,2.4,0004*5F
@SIC,,GET,DATA.DEEP,OK,0.90*1a
@SIC,,GET,DATA.DEEP,OK,0.91*1b
$GPGGA,091843.60,0043.4641169,S,00847.5045557,E,4,29,0.5,1.7766,M,0.000,M,0.6,0004*50
@SIC,,GET,DATA.DEEP,OK,0.85*1e
$GPGGA,091843.80,0043.4641905,S,00847.5046012,E,4,29,0.5,1.7583,M,0.000,M,0.8,0004*5C
@SIC,,GET,DATA.DEEP,OK,0.82*19
@SIC,,GET,DATA.DEEP,OK,0.79*1d
$GPGGA,091844.00,0043.4642652,S,00847.5046568,E,4,29,0.5,1.7296,M,0.000,M,1.0,0004*5F
@SIC,,GET,DATA.DEEP,OK,0.78*1c
$GPGGA,091844.20,0043.4643464,S,00847.5047118,E,4,29,0.5,1.7244,M,0.000,M,1.2,0004*54
$GPHDT,140.4639,T*08
$GPZDA,091844.00,21,04,2026,,*67
@SIC,,GET,DATA.DEEP,OK,0.81*1a
@SIC,,GET,DATA.DEEP,OK,0.82*19
$GPGGA,091844.40,0043.4644248,S,00847.5047864,E,4,29,0.5,1.7225,M,0.000,M,1.4,0004*5E
@SIC,,GET,DATA.DEEP,OK,0.81*1a
$GPGGA,091844.60,0043.4645000,S,00847.5048684,E,4,29,0.5,1.7271,M,0.000,M,1.6,0004*5F
@SIC,,GET,DATA.DEEP,OK,0.82*19
@SIC,,GET,DATA.DEEP,OK,0.87*1c
$GPGGA,091844.80,0043.4645754,S,00847.5049489,E,4,29,0.5,1.7292,M,0.000,M,1.8,0004*5A
@SIC,,GET,DATA.DEEP,OK,0.84*1f
$GPGGA,091845.00,0043.4646496,S,00847.5050378,E,4,29,0.5,1.7328,M,0.000,M,2.0,0004*57
@SIC,,GET,DATA.DEEP,OK,0.84*1f
@SIC,,GET,DATA.DEEP,OK,0.84*1f
$GPGGA,091845.20,0043.4647202,S,00847.5051228,E,4,29,0.5,1.7340,M,0.000,M,2.2,0004*56
$GPHDT,122.0110,T*04
$GPZDA,091845.00,21,04,2026,,*66
@SIC,,GET,DATA.DEEP,OK,0.82*19
$GPGGA,091845.40,0043.4647872,S,00847.5052149,E,4,29,0.5,1.7308,M,0.000,M,2.4,0004*50
@SIC,,GET,DATA.DEEP,OK,0.84*1f
@SIC,,GET,DATA.DEEP,OK,0.81*1a
$GPGGA,091845.60,0043.4648488,S,00847.5053203,E,4,29,0.5,1.7259,M,0.000,M,0.6,0004*5D
@SIC,,GET,DATA.DEEP,OK,0.79*1d
$GPGGA,091845.80,0043.4648984,S,00847.5054224,E,4,29,0.5,1.7119,M,0.000,M,0.8,0004*59
@SIC,,GET,DATA.DEEP,OK,0.79*1d
@SIC,,GET,DATA.DEEP,OK,0.81*1a
$GPGGA,091846.00,0043.4649434,S,00847.5055139,E,4,29,0.5,1.7020,M,0.000,M,1.0,0004*59
@SIC,,GET,DATA.DEEP,OK,0.84*1f
$GPGGA,091846.20,0043.4649834,S,00847.5056024,E,4,29,0.5,1.7375,M,0.000,M,1.2,0004*58
$GPHDT,102.6075,T*02
$GPZDA,091846.00,21,04,2026,,*65
@SIC,,GET,DATA.DEEP,OK,0.87*1c
@SIC,,GET,DATA.DEEP,OK,0.87*1c
$GPGGA,091846.40,0043.4650174,S,00847.5056896,E,4,29,0.5,1.7834,M,0.000,M,1.4,0004*52
@SIC,,GET,DATA.DEEP,OK,0.85*1e
$GPGGA,091846.60,0043.4650485,S,00847.5057699,E,4,29,0.5,1.7793,M,0.000,M,1.6,0004*5B
@SIC,,GET,DATA.DEEP,OK,0.84*1f
@SIC,,GET,DATA.DEEP,OK,0.82*19
$GPGGA,091846.80,0043.4650747,S,00847.5058497,E,4,29,0.5,1.7703,M,0.000,M,1.8,0004*5C
@SIC,,GET,DATA.DEEP,OK,0.84*1f
$GPGGA,091847.00,0043.4651016,S,00847.5059276,E,4,29,0.5,1.7551,M,0.000,M,1.0,0004*52
$GPZDA,091847.00,21,04,2026,,*64
@SIC,,GET,DATA.DEEP,OK,0.84*1f
@SIC,,GET,DATA.DEEP,OK,0.82*19
$GPGGA,091847.20,0043.4651209,S,00847.5060076,E,4,29,0.5,1.7493,M,0.000,M,1.2,0004*59
@SIC,,GET,DATA.DEEP,OK,0.85*1e
$GPGGA,091847.40,0043.4651297,S,00847.5060869,E,4,29,0.5,1.7522,M,0.000,M,1.4,0004*53
@SIC,,GET,DATA.DEEP,OK,0.84*1f
$GPGGA,091847.60,0043.4651330,S,00847.5061649,E,4,29,0.5,1.7639,M,0.000,M,1.6,0004*5B
@SIC,,GET,DATA.DEEP,OK,0.84*1f
@SIC,,GET,DATA.DEEP,OK,0.84*1f
$GPGGA,091847.80,0043.4651329,S,00847.5062541,E,4,29,0.5,1.7688,M,0.000,M,1.8,0004*51
@SIC,,GET,DATA.DEEP,OK,0.84*1f
$GPGGA,091848.00,0043.4651289,S,00847.5063603,E,4,29,0.5,1.7643,M,0.000,M,2.0,0004*55
@SIC,,GET,DATA.DEEP,OK,0.85*1e
@SIC,,GET,DATA.DEEP,OK,0.87*1c
$GPGGA,091848.20,0043.4651134,S,00847.5064862,E,4,29,0.5,1.7523,M,0.000,M,2.2,0004*5B
$GPHDT,80.7284,T*34
$GPZDA,091848.00,21,04,2026,,*6B
@SIC,,GET,DATA.DEEP,OK,0.84*1f
$GPGGA,091848.40,0043.4650943,S,00847.5066237,E,4,29,0.5,1.7400,M,0.000,M,2.4,0004*5A
@SIC,,GET,DATA.DEEP,OK,0.81*1a
@SIC,,GET,DATA.DEEP,OK,0.84*1f
$GPGGA,091848.60,0043.4650667,S,00847.5067585,E,4,29,0.5,1.7300,M,0.000,M,2.6,0004*5B
@SIC,,GET,DATA.DEEP,OK,0.85*1e
$GPGGA,091848.80,0043.4650301,S,00847.5068968,E,4,29,0.5,1.7395,M,0.000,M,2.8,0004*52
@SIC,,GET,DATA.DEEP,OK,0.88*13
@SIC,,GET,DATA.DEEP,OK,0.88*13
$GPGGA,091849.00,0043.4649926,S,00847.5070529,E,4,29,0.5,1.7522,M,0.000,M,3.0,0004*5F
$GPZDA,091849.00,21,04,2026,,*6A
@SIC,,GET,DATA.DEEP,OK,0.88*13
$GPGGA,091849.20,0043.4649665,S,00847.5072198,E,4,29,0.5,1.7269,M,0.000,M,3.2,0004*53
@SIC,,GET,DATA.DEEP,OK,0.84*1f
@SIC,,GET,DATA.DEEP,OK,0.87*1c
$GPGGA,091849.40,0043.4649572,S,00847.5073917,E,4,29,0.5,1.6919,M,0.000,M,3.4,0004*55
@SIC,,GET,DATA.DEEP,OK,0.82*19
$GPGGA,091849.60,0043.4649614,S,00847.5075666,E,4,29,0.5,1.6980,M,0.000,M,0.6,0004*5A
@SIC,,GET,DATA.DEEP,OK,0.87*1c
@SIC,,GET,DATA.DEEP,OK,0.90*1a
$GPGGA,091849.80,0043.4649796,S,00847.5077428,E,4,29,0.5,1.7052,M,0.000,M,0.8,0004*5C
@SIC,,GET,DATA.DEEP,OK,0.90*1a
$GPGGA,091850.00,0043.4650109,S,00847.5079222,E,4,29,0.5,1.7040,M,0.000,M,1.0,0004*5C
$GPZDA,091850.00,21,04,2026,,*62
@SIC,,GET,DATA.DEEP,OK,0.90*1a
@SIC,,GET,DATA.DEEP,OK,0.91*1b
$GPGGA,091850.20,0043.4650665,S,00847.5080934,E,4,29,0.5,1.7200,M,0.000,M,1.2,0004*5D
@SIC,,GET,DATA.DEEP,OK,0.82*19
$GPGGA,091850.40,0043.4651450,S,00847.5082578,E,4,29,0.5,1.7149,M,0.000,M,1.4,0004*50
@SIC,,GET,DATA.DEEP,OK,0.85*1e
@SIC,,GET,DATA.DEEP,OK,0.90*1a
$GPGGA,091850.60,0043.4652447,S,00847.5084079,E,4,29,0.5,1.7111,M,0.000,M,1.6,0004*5A
@SIC,,GET,DATA.DEEP,OK,0.87*1c
$GPGGA,091850.80,0043.4653530,S,00847.5085418,E,4,29,0.5,1.7124,M,0.000,M,1.8,0004*5E
@SIC,,GET,DATA.DEEP,OK,0.90*1a
@SIC,,GET,DATA.DEEP,OK,0.88*13
$GPGGA,091851.00,0043.4654792,S,00847.5086518,E,4,29,0.5,1.7584,M,0.000,M,2.0,0004*5D
$GPZDA,091851.00,21,04,2026,,*63
@SIC,,GET,DATA.DEEP,OK,0.99*13
$GPGGA,091851.20,0043.4656153,S,00847.5087728,E,4,29,0.5,1.7707,M,0.000,M,2.2,0004*5D
@SIC,,GET,DATA.DEEP,OK,0.90*1a
@SIC,,GET,DATA.DEEP,OK,0.84*1f
$GPGGA,091851.40,0043.4657456,S,00847.5088776,E,4,29,0.5,1.7009,M,0.000,M,2.4,0004*51
@SIC,,GET,DATA.DEEP,OK,0.84*1f
$GPGGA,091851.60,0043.4658686,S,00847.5089419,E,4,29,0.5,1.6803,M,0.000,M,0.6,0004*5B
@SIC,,GET,DATA.DEEP,OK,0.82*19
@SIC,,GET,DATA.DEEP,OK,0.84*1f
$GPGGA,091851.80,0043.4659846,S,00847.5089887,E,4,29,0.5,1.6852,M,0.000,M,0.8,0004*57
@SIC,,GET,DATA.DEEP,OK,0.82*19
$GPGGA,091852.00,0043.4661030,S,00847.5090294,E,4,29,0.5,1.7224,M,0.000,M,1.0,0004*5D
@SIC,,GET,DATA.DEEP,OK,0.85*1e
@SIC,,GET,DATA.DEEP,OK,0.88*13
$GPGGA,091852.20,0043.4662264,S,00847.5090615,E,4,29,0.5,1.7774,M,0.000,M,1.2,0004*50
$GPHDT,160.0061,T*05
@SIC,,GET,DATA.DEEP,OK,0.91*1b
$GPGGA,091852.40,0043.4663609,S,00847.5091000,E,4,29,0.5,1.8074,M,0.000,M,1.4,0004*55
@SIC,,GET,DATA.DEEP,OK,0.90*1a
$GPGGA,091852.60,0043.4665042,S,00847.5091502,E,4,29,0.5,1.7938,M,0.000,M,1.6,0004*53
@SIC,,GET,DATA.DEEP,OK,0.88*13
@SIC,,GET,DATA.DEEP,OK,0.85*1e
$GPGGA,091852.80,0043.4666479,S,00847.5092062,E,4,29,0.5,1.7729,M,0.000,M,1.8,0004*52
@SIC,,GET,DATA.DEEP,OK,0.88*13
$GPGGA,091853.00,0043.4667938,S,00847.5092622,E,4,29,0.5,1.7542,M,0.000,M,1.0,0004*57
$GPZDA,091853.00,21,04,2026,,*61
@SIC,,GET,DATA.DEEP,OK,0.85*1e
@SIC,,GET,DATA.DEEP,OK,0.82*19
$GPGGA,091853.20,0043.4669392,S,00847.5093254,E,4,29,0.5,1.7571,M,0.000,M,1.2,0004*57
@SIC,,GET,DATA.DEEP,OK,0.85*1e
$GPGGA,091853.40,0043.4670787,S,00847.5093953,E,4,29,0.5,1.7555,M,0.000,M,0.4,0004*54
@SIC,,GET,DATA.DEEP,OK,0.87*1c
@SIC,,GET,DATA.DEEP,OK,0.84*1f
$GPGGA,091853.60,0043.4672073,S,00847.5094752,E,4,29,0.5,1.7489,M,0.000,M,0.6,0004*52
@SIC,,GET,DATA.DEEP,OK,0.85*1e
$GPGGA,091853.80,0043.4673257,S,00847.5095604,E,4,29,0.5,1.7415,M,0.000,M,0.8,0004*51
@SIC,,GET,DATA.DEEP,OK,0.84*1f
@SIC,,GET,DATA.DEEP,OK,0.85*1e
$GPGGA,091854.00,0043.4674359,S,00847.5096442,E,4,29,0.5,1.7454,M,0.000,M,1.0,0004*59
$GPZDA,091854.00,21,04,2026,,*66
@SIC,,GET,DATA.DEEP,OK,0.87*1c
$GPGGA,091854.20,0043.4675468,S,00847.5097258,E,4,29,0.5,1.7564,M,0.000,M,1.2,0004*53
@SIC,,GET,DATA.DEEP,OK,0.87*1c
@SIC,,GET,DATA.DEEP,OK,0.82*19
$GPGGA,091854.40,0043.4676493,S,00847.5098152,E,4,29,0.5,1.7587,M,0.000,M,1.4,0004*5F
@SIC,,GET,DATA.DEEP,OK,0.82*19
$GPGGA,091854.60,0043.4677356,S,00847.5099056,E,4,29,0.5,1.7439,M,0.000,M,1.6,0004*50
@SIC,,GET,DATA.DEEP,OK,0.81*1a
@SIC,,GET,DATA.DEEP,OK,0.84*1f
$GPGGA,091854.80,0043.4678076,S,00847.5099968,E,4,29,0.5,1.7293,M,0.000,M,1.8,0004*5C
@SIC,,GET,DATA.DEEP,OK,0.85*1e
$GPGGA,091855.00,0043.4678738,S,00847.5100968,E,4,29,0.5,1.7181,M,0.000,M,2.0,0004*52
$GPZDA,091855.00,21,04,2026,,*67
@SIC,,GET,DATA.DEEP,OK,0.82*19
@SIC,,GET,DATA.DEEP,OK,0.82*19
$GPGGA,091855.20,0043.4679371,S,00847.5101993,E,4,29,0.5,1.7144,M,0.000,M,2.2,0004*56
@SIC,,GET,DATA.DEEP,OK,0.82*19
$GPGGA,091855.40,0043.4679889,S,00847.5103034,E,4,29,0.5,1.7133,M,0.000,M,2.4,0004*5C
@SIC,,GET,DATA.DEEP,OK,0.82*19
@SIC,,GET,DATA.DEEP,OK,0.87*1c
$GPGGA,091855.60,0043.4680324,S,00847.5104032,E,4,29,0.5,1.7161,M,0.000,M,2.6,0004*50
@SIC,,GET,DATA.DEEP,OK,0.85*1e
$GPGGA,091855.80,0043.4680727,S,00847.5104995,E,4,29,0.5,1.7194,M,0.000,M,2.8,0004*59
@SIC,,GET,DATA.DEEP,OK,0.87*1c
@SIC,,GET,DATA.DEEP,OK,0.88*13
$GPGGA,091856.00,0043.4681072,S,00847.5105865,E,4,29,0.5,1.7220,M,0.000,M,3.0,0004*5E
@SIC,,GET,DATA.DEEP,OK,0.88*13
$GPGGA,091856.20,0043.4681381,S,00847.5106810,E,4,29,0.5,1.7257,M,0.000,M,3.2,0004*50
$GPHDT,103.0634,T*06
$GPZDA,091856.00,21,04,2026,,*64
@SIC,,GET,DATA.DEEP,OK,0.90*1a
@SIC,,GET,DATA.DEEP,OK,0.85*1e
$GPGGA,091856.40,0043.4681569,S,00847.5107874,E,4,29,0.5,1.7198,M,0.000,M,3.4,0004*53
@SIC,,GET,DATA.DEEP,OK,0.85*1e
$GPGGA,091856.60,0043.4681749,S,00847.5108868,E,4,29,0.5,1.7035,M,0.000,M,3.6,0004*57
@SIC,,GET,DATA.DEEP,OK,0.87*1c
@SIC,,GET,DATA.DEEP,OK,0.88*13
$GPGGA,091856.80,0043.4681954,S,00847.5109807,E,4,29,0.5,1.7040,M,0.000,M,3.8,0004*5F
@SIC,,GET,DATA.DEEP,OK,0.94*1e
$GPGGA,091857.00,0043.4682285,S,00847.5110776,E,4,29,0.5,1.7224,M,0.000,M,4.0,0004*5C
$GPZDA,091857.00,21,04,2026,,*65
@SIC,,GET,DATA.DEEP,OK,0.88*13
@SIC,,GET,DATA.DEEP,OK,0.87*1c
$GPGGA,091857.20,0043.4682505,S,00847.5111682,E,4,29,0.5,1.7243,M,0.000,M,4.2,0004*59
@SIC,,GET,DATA.DEEP,OK,0.84*1f
$GPGGA,091857.40,0043.4682651,S,00847.5112496,E,4,29,0.5,1.7186,M,0.000,M,4.4,0004*55
@SIC,,GET,DATA.DEEP,OK,0.85*1e
@SIC,,GET,DATA.DEEP,OK,0.87*1c
$GPGGA,091857.60,0043.4682961,S,00847.5113325,E,4,29,0.5,1.7207,M,0.000,M,4.6,0004*5D
@SIC,,GET,DATA.DEEP,OK,0.87*1c
$GPGGA,091857.80,0043.4683379,S,00847.5114138,E,4,29,0.5,1.7233,M,0.000,M,4.8,0004*51
@SIC,,GET,DATA.DEEP,OK,0.88*13
$GPGGA,091858.00,0043.4683780,S,00847.5114851,E,4,29,0.5,1.7311,M,0.000,M,5.0,0004*5A
@SIC,,GET,DATA.DEEP,OK,0.88*13
@SIC,,GET,DATA.DEEP,OK,0.91*1b
$GPGGA,091858.20,0043.4684234,S,00847.5115484,E,4,29,0.5,1.7340,M,0.000,M,5.2,0004*56
$GPHDT,129.6503,T*0F
$GPZDA,091858.00,21,04,2026,,*6A
@SIC,,GET,DATA.DEEP,OK,0.93*19
$GPGGA,091858.40,0043.4684685,S,00847.5116160,E,4,29,0.5,1.7374,M,0.000,M,5.4,0004*53
@SIC,,GET,DATA.DEEP,OK,0.91*1b
@SIC,,GET,DATA.DEEP,OK,0.87*1c
$GPGGA,091858.60,0043.4685207,S,00847.5116882,E,4,29,0.5,1.7255,M,0.000,M,5.6,0004*5B
@SIC,,GET,DATA.DEEP,OK,0.87*1c
$GPGGA,091858.80,0043.4685844,S,00847.5117714,E,4,29,0.5,1.6977,M,0.000,M,5.8,0004*5D
@SIC,,GET,DATA.DEEP,OK,0.84*1f
@SIC,,GET,DATA.DEEP,OK,0.85*1e
$GPGGA,091859.00,0043.4686593,S,00847.5118567,E,4,29,0.5,1.6884,M,0.000,M,6.0,0004*5F
@SIC,,GET,DATA.DEEP,OK,0.87*1c
$GPGGA,091859.20,0043.4687297,S,00847.5119487,E,4,29,0.5,1.6881,M,0.000,M,6.2,0004*56
$GPHDT,123.8272,T*0A
$GPZDA,091859.00,21,04,2026,,*6B
@SIC,,GET,DATA.DEEP,OK,0.87*1c
@SIC,,GET,DATA.DEEP,OK,0.90*1a
$GPGGA,091859.40,0043.4687884,S,00847.5120387,E,4,29,0.5,1.6989,M,0.000,M,6.4,0004*5A
@SIC,,GET,DATA.DEEP,OK,0.90*1a
$GPGGA,091859.60,0043.4688412,S,00847.5121318,E,4,29,0.5,1.7105,M,0.000,M,6.6,0004*5C
@SIC,,GET,DATA.DEEP,OK,0.90*1a
@SIC,,GET,DATA.DEEP,OK,0.90*1a
$GPGGA,091859.80,0043.4688841,S,00847.5122334,E,4,29,0.5,1.7117,M,0.000,M,6.8,0004*58
@SIC,,GET,DATA.DEEP,OK,0.90*1a
$GPGGA,091900.00,0043.4689211,S,00847.5123393,E,4,29,0.5,1.6959,M,0.000,M,7.0,0004*55
$GPZDA,091900.00,21,04,2026,,*66
@SIC,,GET,DATA.DEEP,OK,0.88*13
@SIC,,GET,DATA.DEEP,OK,0.85*1e
$GPGGA,091900.20,0043.4689577,S,00847.5124506,E,4,29,0.5,1.6703,M,0.000,M,7.2,0004*5E
@SIC,,GET,DATA.DEEP,OK,0.84*1f
$GPGGA,091900.40,0043.4689952,S,00847.5125538,E,4,29,0.5,1.6359,M,0.000,M,7.4,0004*52
@SIC,,GET,DATA.DEEP,OK,0.85*1e
@SIC,,GET,DATA.DEEP,OK,0.87*1c
$GPGGA,091900.60,0043.4690277,S,00847.5126574,E,4,29,0.5,1.6417,M,0.000,M,7.6,0004*50
@SIC,,GET,DATA.DEEP,OK,0.88*13
$GPGGA,091900.80,0043.4690484,S,00847.5127619,E,4,29,0.5,1.6592,M,0.000,M,7.8,0004*5F
@SIC,,GET,DATA.DEEP,OK,0.91*1b
@SIC,,GET,DATA.DEEP,OK,0.91*1b
$GPGGA,091901.00,0043.4690622,S,00847.5128516,E,4,29,0.5,1.6888,M,0.000,M,8.0,0004*5A
$GPZDA,091901.00,21,04,2026,,*67
@SIC,,GET,DATA.DEEP,OK,0.88*13
$GPGGA,091901.20,0043.4690742,S,00847.5129453,E,4,29,0.5,1.7002,M,0.000,M,8.2,0004*57
@SIC,,GET,DATA.DEEP,OK,0.88*13
@SIC,,GET,DATA.DEEP,OK,0.88*13
$GPGGA,091901.40,0043.4690824,S,00847.5130495,E,4,29,0.5,1.6962,M,0.000,M,8.4,0004*54
@SIC,,GET,DATA.DEEP,OK,0.90*1a
$GPGGA,091901.60,0043.4690892,S,00847.5131673,E,4,29,0.5,1.6903,M,0.000,M,0.6,0004*5D
@SIC,,GET,DATA.DEEP,OK,0.88*13
@SIC,,GET,DATA.DEEP,OK,0.91*1b
$GPGGA,091901.80,0043.4690931,S,00847.5133056,E,4,29,0.5,1.6756,M,0.000,M,0.8,0004*58
@SIC,,GET,DATA.DEEP,OK,0.91*1b
$GPGGA,091902.00,0043.4690912,S,00847.5134780,E,4,29,0.5,1.6662,M,0.000,M,1.0,0004*56
$GPZDA,091902.00,21,04,2026,,*64
@SIC,,GET,DATA.DEEP,OK,0.93*19
@SIC,,GET,DATA.DEEP,OK,0.96*1c
$GPGGA,091902.20,0043.4690811,S,00847.5136557,E,4,29,0.5,1.7398,M,0.000,M,1.2,0004*5F
@SIC,,GET,DATA.DEEP,OK,0.94*1e
$GPGGA,091902.40,0043.4690741,S,00847.5138642,E,4,29,0.5,1.7465,M,0.000,M,1.4,0004*59
@SIC,,GET,DATA.DEEP,OK,0.93*19
@SIC,,GET,DATA.DEEP,OK,0.93*19
$GPGGA,091902.60,0043.4690799,S,00847.5140870,E,4,29,0.5,1.7406,M,0.000,M,1.6,0004*59
@SIC,,GET,DATA.DEEP,OK,0.96*1c
$GPGGA,091902.80,0043.4690884,S,00847.5142962,E,4,29,0.5,1.7262,M,0.000,M,1.8,0004*5E
@SIC,,GET,DATA.DEEP,OK,0.99*13
@SIC,,GET,DATA.DEEP,OK,0.91*1b
$GPGGA,091903.00,0043.4690931,S,00847.5144924,E,4,29,0.5,1.7105,M,0.000,M,2.0,0004*55
$GPZDA,091903.00,21,04,2026,,*65
@SIC,,GET,DATA.DEEP,OK,0.91*1b
$GPGGA,091903.20,0043.4690932,S,00847.5146803,E,4,29,0.5,1.7038,M,0.000,M,2.2,0004*5F
@SIC,,GET,DATA.DEEP,OK,0.90*1a
@SIC,,GET,DATA.DEEP,OK,0.88*13
$GPGGA,091903.40,0043.4690998,S,00847.5148571,E,4,29,0.5,1.6839,M,0.000,M,2.4,0004*51
@SIC,,GET,DATA.DEEP,OK,0.91*1b
$GPGGA,091903.60,0043.4691206,S,00847.5150095,E,4,29,0.5,1.6894,M,0.000,M,0.6,0004*5F
@SIC,,GET,DATA.DEEP,OK,0.93*19
@SIC,,GET,DATA.DEEP,OK,0.93*19
$GPGGA,091903.80,0043.4691609,S,00847.5151479,E,4,29,0.5,1.7088,M,0.000,M,0.8,0004*57
@SIC,,GET,DATA.DEEP,OK,0.91*1b
$GPGGA,091904.00,0043.4692095,S,00847.5152924,E,4,29,0.5,1.7328,M,0.000,M,1.0,0004*5E
$GPZDA,091904.00,21,04,2026,,*62
@SIC,,GET,DATA.DEEP,OK,0.88*13
$GPGGA,091904.20,0043.4692626,S,00847.5154269,E,4,29,0.5,1.7278,M,0.000,M,1.2,0004*50
@SIC,,GET,DATA.DEEP,OK,0.85*1e
@SIC,,GET,DATA.DEEP,OK,0.87*1c
$GPGGA,091904.40,0043.4693333,S,00847.5155502,E,4,29,0.5,1.7220,M,0.000,M,1.4,0004*56
@SIC,,GET,DATA.DEEP,OK,0.91*1b
$GPGGA,091904.60,0043.4694081,S,00847.5156707,E,4,29,0.5,1.7328,M,0.000,M,1.6,0004*56
@SIC,,GET,DATA.DEEP,OK,0.87*1c
@SIC,,GET,DATA.DEEP,OK,0.93*19
$GPGGA,091904.80,0043.4694892,S,00847.5157926,E,4,29,0.5,1.7813,M,0.000,M,1.8,0004*53
@SIC,,GET,DATA.DEEP,OK,0.93*19
$GPGGA,091905.00,0043.4695725,S,00847.5159025,E,4,29,0.5,1.7924,M,0.000,M,2.0,0004*52
$GPZDA,091905.00,21,04,2026,,*63
@SIC,,GET,DATA.DEEP,OK,0.91*1b
@SIC,,GET,DATA.DEEP,OK,0.91*1b
$GPGGA,091905.20,0043.4696556,S,00847.5159965,E,4,29,0.5,1.7985,M,0.000,M,2.2,0004*51
@SIC,,GET,DATA.DEEP,OK,0.91*1b
$GPGGA,091905.40,0043.4697415,S,00847.5160841,E,4,29,0.5,1.7914,M,0.000,M,0.4,0004*51
@SIC,,GET,DATA.DEEP,OK,0.90*1a
@SIC,,GET,DATA.DEEP,OK,0.88*13
$GPGGA,091905.60,0043.4698302,S,00847.5161662,E,4,29,0.5,1.7794,M,0.000,M,0.6,0004*57
@SIC,,GET,DATA.DEEP,OK,0.88*13
$GPGGA,091905.80,0043.4699212,S,00847.5162429,E,4,29,0.5,1.7717,M,0.000,M,0.8,0004*53
@SIC,,GET,DATA.DEEP,OK,0.87*1c
@SIC,,GET,DATA.DEEP,OK,0.88*13
$GPGGA,091906.00,0043.4700093,S,00847.5163166,E,4,29,0.5,1.7667,M,0.000,M,1.0,0004*52
@SIC,,GET,DATA.DEEP,OK,0.90*1a
$GPGGA,091906.20,0043.4700891,S,00847.5163912,E,4,29,0.5,1.7655,M,0.000,M,1.2,0004*52
$GPHDT,150.1021,T*03
$GPZDA,091906.00,21,04,2026,,*60
@SIC,,GET,DATA.DEEP,OK,0.87*1c
@SIC,,GET,DATA.DEEP,OK,0.90*1a
$GPGGA,091906.40,0043.4701639,S,00847.5164532,E,4,29,0.5,1.7657,M,0.000,M,1.4,0004*54
@SIC,,GET,DATA.DEEP,OK,0.88*13
$GPGGA,091906.60,0043.4702383,S,00847.5165037,E,4,29,0.5,1.7684,M,0.000,M,1.6,0004*5C
@SIC,,GET,DATA.DEEP,OK,0.88*13
@SIC,,GET,DATA.DEEP,OK,0.87*1c
$GPGGA,091906.80,0043.4703150,S,00847.5165538,E,4,29,0.5,1.7725,M,0.000,M,1.8,0004*51
@SIC,,GET,DATA.DEEP,OK,0.87*1c
$GPGGA,091907.00,0043.4703943,S,00847.5166024,E,4,29,0.5,1.7778,M,0.000,M,2.0,0004*5A
$GPZDA,091907.00,21,04,2026,,*61
@SIC,,GET,DATA.DEEP,OK,0.85*1e
@SIC,,GET,DATA.DEEP,OK,0.87*1c
$GPGGA,091907.20,0043.4704716,S,00847.5166523,E,4,29,0.5,1.7743,M,0.000,M,2.2,0004*59
@SIC,,GET,DATA.DEEP,OK,0.88*13
$GPGGA,091907.40,0043.4705448,S,00847.5167079,E,4,29,0.5,1.7738,M,0.000,M,2.4,0004*57
@SIC,,GET,DATA.DEEP,OK,0.88*13
@SIC,,GET,DATA.DEEP,OK,0.88*13
$GPGGA,091907.60,0043.4706183,S,00847.5167626,E,4,29,0.5,1.7738,M,0.000,M,2.6,0004*5A
@SIC,,GET,DATA.DEEP,OK,0.90*1a
$GPGGA,091907.80,0043.4706916,S,00847.5168103,E,4,29,0.5,1.7755,M,0.000,M,2.8,0004*5A
@SIC,,GET,DATA.DEEP,OK,0.88*13
@SIC,,GET,DATA.DEEP,OK,0.88*13
$GPGGA,091908.00,0043.4707711,S,00847.5168530,E,4,29,0.5,1.7828,M,0.000,M,3.0,0004*5D
$GPZDA,091908.00,21,04,2026,,*6E
@SIC,,GET,DATA.DEEP,OK,0.85*1e
$GPGGA,091908.20,0043.4708445,S,00847.5168980,E,4,29,0.5,1.7834,M,0.000,M,3.2,0004*5A
@SIC,,GET,DATA.DEEP,OK,0.87*1c
@SIC,,GET,DATA.DEEP,OK,0.93*19
$GPGGA,091908.40,0043.4709102,S,00847.5169390,E,4,29,0.5,1.7802,M,0.000,M,3.4,0004*52
@SIC,,GET,DATA.DEEP,OK,0.91*1b
$GPGGA,091908.60,0043.4709800,S,00847.5169735,E,4,29,0.5,1.7973,M,0.000,M,3.6,0004*55
@SIC,,GET,DATA.DEEP,OK,0.93*19
$GPGGA,091908.80,0043.4710539,S,00847.5170086,E,4,29,0.5,1.8145,M,0.000,M,3.8,0004*5F
@SIC,,GET,DATA.DEEP,OK,0.94*1e
@SIC,,GET,DATA.DEEP,OK,0.91*1b
$GPGGA,091909.00,0043.4711197,S,00847.5170522,E,4,29,0.5,1.8162,M,0.000,M,4.0,0004*56
@SIC,,GET,DATA.DEEP,OK,0.88*13
@SIC,,GET,DATA.DEEP,OK,0.87*1c
$GPGGA,091909.20,0043.4711741,S,00847.5170949,E,4,29,0.5,1.7990,M,0.000,M,4.2,0004*50
$GPHDT,151.2931,T*09
@SIC,,GET,DATA.DEEP,OK,0.85*1e
$GPGGA,091909.40,0043.4712321,S,00847.5171266,E,4,29,0.5,1.7901,M,0.000,M,4.4,0004*5E
@SIC,,GET,DATA.DEEP,OK,0.90*1a
$GPGGA,091909.60,0043.4712897,S,00847.5171525,E,4,29,0.5,1.7952,M,0.000,M,0.6,0004*5A
@SIC,,GET,DATA.DEEP,OK,0.90*1a
@SIC,,GET,DATA.DEEP,OK,0.91*1b
$GPGGA,091909.80,0043.4713440,S,00847.5171789,E,4,29,0.5,1.8015,M,0.000,M,0.8,0004*5C
@SIC,,GET,DATA.DEEP,OK,0.90*1a
$GPGGA,091910.00,0043.4713956,S,00847.5172083,E,4,29,0.5,1.7881,M,0.000,M,1.0,0004*5B
$GPZDA,091910.00,21,04,2026,,*67
@SIC,,GET,DATA.DEEP,OK,0.85*1e
@SIC,,GET,DATA.DEEP,OK,0.84*1f
$GPGGA,091910.20,0043.4714627,S,00847.5172512,E,4,29,0.5,1.7703,M,0.000,M,1.2,0004*5D
@SIC,,GET,DATA.DEEP,OK,0.84*1f
$GPGGA,091910.40,0043.4715540,S,00847.5172995,E,4,29,0.5,1.7463,M,0.000,M,1.4,0004*58
@SIC,,GET,DATA.DEEP,OK,0.82*19
@SIC,,GET,DATA.DEEP,OK,0.85*1e
$GPGGA,091910.60,0043.4716666,S,00847.5173385,E,4,29,0.5,1.7773,M,0.000,M,1.6,0004*54
@SIC,,GET,DATA.DEEP,OK,0.90*1a
$GPGGA,091910.80,0043.4717767,S,00847.5173870,E,4,29,0.5,1.8477,M,0.000,M,1.8,0004*5C
@SIC,,GET,DATA.DEEP,OK,0.93*19
@SIC,,GET,DATA.DEEP,OK,0.91*1b
$GPGGA,091911.00,0043.4718641,S,00847.5174472,E,4,29,0.5,1.8571,M,0.000,M,1.0,0004*59
$GPZDA,091911.00,21,04,2026,,*66
@SIC,,GET,DATA.DEEP,OK,0.88*13
$GPGGA,091911.20,0043.4719345,S,00847.5175193,E,4,29,0.5,1.8147,M,0.000,M,1.2,0004*53
@SIC,,GET,DATA.DEEP,OK,0.85*1e
@SIC,,GET,DATA.DEEP,OK,0.84*1f
$GPGGA,091911.40,0043.4720056,S,00847.5175960,E,4,29,0.5,1.7711,M,0.000,M,0.4,0004*57
@SIC,,GET,DATA.DEEP,OK,0.84*1f
$GPGGA,091911.60,0043.4720922,S,00847.5176767,E,4,29,0.5,1.7678,M,0.000,M,0.6,0004*59
@SIC,,GET,DATA.DEEP,OK,0.84*1f
@SIC,,GET,DATA.DEEP,OK,0.85*1e
$GPGGA,091911.80,0043.4721738,S,00847.5177515,E,4,29,0.5,1.7738,M,0.000,M,0.8,0004*5E
@SIC,,GET,DATA.DEEP,OK,0.90*1a
$GPGGA,091912.00,0043.4722419,S,00847.5178269,E,4,29,0.5,1.7788,M,0.000,M,1.0,0004*57
$GPZDA,091912.00,21,04,2026,,*65
@SIC,,GET,DATA.DEEP,OK,0.91*1b
@SIC,,GET,DATA.DEEP,OK,0.90*1a
$GPGGA,091912.20,0043.4722949,S,00847.5179094,E,4,29,0.5,1.7880,M,0.000,M,1.2,0004*59
@SIC,,GET,DATA.DEEP,OK,0.88*13
$GPGGA,091912.40,0043.4723393,S,00847.5179940,E,4,29,0.5,1.7978,M,0.000,M,1.4,0004*53
@SIC,,GET,DATA.DEEP,OK,0.85*1e
@SIC,,GET,DATA.DEEP,OK,0.84*1f
$GPGGA,091912.60,0043.4723807,S,00847.5180849,E,4,29,0.5,1.7897,M,0.000,M,1.6,0004*5B
@SIC,,GET,DATA.DEEP,OK,0.84*1f
$GPGGA,091912.80,0043.4724293,S,00847.5181828,E,4,29,0.5,1.7852,M,0.000,M,1.8,0004*54
@SIC,,GET,DATA.DEEP,OK,0.82*19
@SIC,,GET,DATA.DEEP,OK,0.84*1f
$GPGGA,091913.00,0043.4724742,S,00847.5182957,E,4,29,0.5,1.7777,M,0.000,M,2.0,0004*5D
$GPZDA,091913.00,21,04,2026,,*64
@SIC,,GET,DATA.DEEP,OK,0.84*1f
$GPGGA,091913.20,0043.4725067,S,00847.5184191,E,4,29,0.5,1.7722,M,0.000,M,2.2,0004*58
@SIC,,GET,DATA.DEEP,OK,0.84*1f
@SIC,,GET,DATA.DEEP,OK,0.87*1c
$GPGGA,091913.40,0043.4725294,S,00847.5185601,E,4,29,0.5,1.7766,M,0.000,M,2.4,0004*59
@SIC,,GET,DATA.DEEP,OK,0.91*1b
$GPGGA,091913.60,0043.4725454,S,00847.5187090,E,4,29,0.5,1.7941,M,0.000,M,0.6,0004*56
@SIC,,GET,DATA.DEEP,OK,0.94*1e
@SIC,,GET,DATA.DEEP,OK,0.93*19
$GPGGA,091913.80,0043.4725471,S,00847.5188740,E,4,29,0.5,1.7975,M,0.000,M,0.8,0004*53
@SIC,,GET,DATA.DEEP,OK,0.91*1b
$GPGGA,091914.00,0043.4725257,S,00847.5190494,E,4,29,0.5,1.7933,M,0.000,M,1.0,0004*56
@SIC,,GET,DATA.DEEP,OK,0.87*1c
@SIC,,GET,DATA.DEEP,OK,0.85*1e
$GPGGA,091914.20,0043.4724967,S,00847.5192268,E,4,29,0.5,1.7330,M,0.000,M,1.2,0004*51
$GPHDT,74.9116,T*39
$GPZDA,091914.00,21,04,2026,,*63
@SIC,,GET,DATA.DEEP,OK,0.85*1e
$GPGGA,091914.40,0043.4724448,S,00847.5194077,E,4,29,0.5,1.7235,M,0.000,M,1.4,0004*5F
@SIC,,GET,DATA.DEEP,OK,0.87*1c
$GPGGA,091914.60,0043.4723823,S,00847.5195898,E,4,29,0.5,1.7291,M,0.000,M,1.6,0004*5F
@SIC,,GET,DATA.DEEP,OK,0.90*1a
@SIC,,GET,DATA.DEEP,OK,0.93*19
$GPGGA,091914.80,0043.4723031,S,00847.5197662,E,4,29,0.5,1.7313,M,0.000,M,1.8,0004*56
@SIC,,GET,DATA.DEEP,OK,0.93*19
$GPGGA,091915.00,0043.4722099,S,00847.5199435,E,4,29,0.5,1.7266,M,0.000,M,2.0,0004*5A
$GPZDA,091915.00,21,04,2026,,*62
@SIC,,GET,DATA.DEEP,OK,0.88*13
@SIC,,GET,DATA.DEEP,OK,0.88*13
$GPGGA,091915.20,0043.4721081,S,00847.5201073,E,4,29,0.5,1.7104,M,0.000,M,2.2,0004*53
@SIC,,GET,DATA.DEEP,OK,0.91*1b
$GPGGA,091915.40,0043.4720038,S,00847.5202711,E,4,29,0.5,1.6968,M,0.000,M,2.4,0004*53
@SIC,,GET,DATA.DEEP,OK,0.85*1e
@SIC,,GET,DATA.DEEP,OK,0.93*19
$GPGGA,091915.60,0043.4718988,S,00847.5204244,E,4,29,0.5,1.6868,M,0.000,M,0.6,0004*5A
@SIC,,GET,DATA.DEEP,OK,0.94*1e
$GPGGA,091915.80,0043.4717972,S,00847.5205491,E,4,29,0.5,1.6889,M,0.000,M,0.8,0004*50
@SIC,,GET,DATA.DEEP,OK,0.90*1a
@SIC,,GET,DATA.DEEP,OK,0.87*1c
$GPGGA,091916.00,0043.4716963,S,00847.5206527,E,4,29,0.5,1.7013,M,0.000,M,1.0,0004*56
@SIC,,GET,DATA.DEEP,OK,0.85*1e
$GPGGA,091916.20,0043.4715874,S,00847.5207594,E,4,29,0.5,1.7178,M,0.000,M,1.2,0004*57
$GPHDT,50.1992,T*33
$GPZDA,091916.00,21,04,2026,,*61
@SIC,,GET,DATA.DEEP,OK,0.85*1e
@SIC,,GET,DATA.DEEP,OK,0.87*1c
$GPGGA,091916.40,0043.4714779,S,00847.5208901,E,4,29,0.5,1.7140,M,0.000,M,1.4,0004*50
@SIC,,GET,DATA.DEEP,OK,0.88*13
$GPGGA,091916.60,0043.4713751,S,00847.5210176,E,4,29,0.5,1.7006,M,0.000,M,1.6,0004*5F
@SIC,,GET,DATA.DEEP,OK,0.81*1a
@SIC,,GET,DATA.DEEP,OK,0.91*1b
$GPGGA,091916.80,0043.4712742,S,00847.5211519,E,4,29,0.5,1.6958,M,0.000,M,1.8,0004*53
@SIC,,GET,DATA.DEEP,OK,0.94*1e
$GPGGA,091917.00,0043.4711800,S,00847.5212909,E,4,29,0.5,1.7560,M,0.000,M,1.0,0004*50
$GPZDA,091917.00,21,04,2026,,*60
@SIC,,GET,DATA.DEEP,OK,0.97*1d
@SIC,,GET,DATA.DEEP,OK,0.99*13
$GPGGA,091917.20,0043.4710975,S,00847.5214416,E,4,29,0.5,1.7761,M,0.000,M,1.2,0004*54
@SIC,,GET,DATA.DEEP,OK,0.96*1c
$GPGGA,091917.40,0043.4710429,S,00847.5216001,E,4,29,0.5,1.7878,M,0.000,M,0.4,0004*56
@SIC,,GET,DATA.DEEP,OK,0.96*1c
@SIC,,GET,DATA.DEEP,OK,0.94*1e
$GPGGA,091917.60,0043.4710159,S,00847.5217477,E,4,29,0.5,1.7727,M,0.000,M,0.6,0004*55
@SIC,,GET,DATA.DEEP,OK,0.93*19
$GPGGA,091917.80,0043.4710077,S,00847.5218825,E,4,29,0.5,1.7607,M,0.000,M,0.8,0004*5F
@SIC,,GET,DATA.DEEP,OK,0.93*19
@SIC,,GET,DATA.DEEP,OK,0.96*1c
$GPGGA,091918.00,0043.4709912,S,00847.5220155,E,4,29,0.5,1.7596,M,0.000,M,1.0,0004*5D
$GPZDA,091918.00,21,04,2026,,*6F
@SIC,,GET,DATA.DEEP,OK,0.94*1e
$GPGGA,091918.20,0043.4709743,S,00847.5221475,E,4,29,0.5,1.7679,M,0.000,M,1.2,0004*53
@SIC,,GET,DATA.DEEP,OK,0.94*1e
@SIC,,GET,DATA.DEEP,OK,0.93*19
$GPGGA,091918.40,0043.4709695,S,00847.5222771,E,4,29,0.5,1.7753,M,0.000,M,1.4,0004*54
@SIC,,GET,DATA.DEEP,OK,0.94*1e
$GPGGA,091918.60,0043.4709838,S,00847.5223898,E,4,29,0.5,1.7691,M,0.000,M,1.6,0004*5B
@SIC,,GET,DATA.DEEP,OK,0.94*1e
@SIC,,GET,DATA.DEEP,OK,0.99*13
$GPGGA,091918.80,0043.4710081,S,00847.5224949,E,4,29,0.5,1.7678,M,0.000,M,1.8,0004*54
@SIC,,GET,DATA.DEEP,OK,0.94*1e
$GPGGA,091919.00,0043.4710356,S,00847.5225976,E,4,29,0.5,1.7726,M,0.000,M,2.0,0004*58
$GPZDA,091919.00,21,04,2026,,*6E
@SIC,,GET,DATA.DEEP,OK,0.93*19
@SIC,,GET,DATA.DEEP,OK,0.94*1e
$GPGGA,091919.20,0043.4710630,S,00847.5227062,E,4,29,0.5,1.7737,M,0.000,M,2.2,0004*53
@SIC,,GET,DATA.DEEP,OK,0.88*13
$GPGGA,091919.40,0043.4710932,S,00847.5228011,E,4,29,0.5,1.7644,M,0.000,M,2.4,0004*50
@SIC,,GET,DATA.DEEP,OK,0.91*1b
@SIC,,GET,DATA.DEEP,OK,0.94*1e
$GPGGA,091919.60,0043.4711341,S,00847.5228813,E,4,29,0.5,1.7646,M,0.000,M,0.6,0004*55
@SIC,,GET,DATA.DEEP,OK,0.99*13
$GPGGA,091919.80,0043.4711826,S,00847.5229549,E,4,29,0.5,1.7747,M,0.000,M,0.8,0004*5C
@SIC,,GET,DATA.DEEP,OK,0.97*1d
$GPGGA,091920.00,0043.4712233,S,00847.5230294,E,4,29,0.5,1.7799,M,0.000,M,1.0,0004*56
$GPZDA,091920.00,21,04,2026,,*64
@SIC,,GET,DATA.DEEP,OK,1.00*12
@SIC,,GET,DATA.DEEP,OK,1.00*12
$GPGGA,091920.20,0043.4712691,S,00847.5230939,E,4,29,0.5,1.8165,M,0.000,M,1.2,0004*5C
@SIC,,GET,DATA.DEEP,OK,0.99*13
$GPGGA,091920.40,0043.4713199,S,00847.5231514,E,4,29,0.5,1.8179,M,0.000,M,1.4,0004*5D
@SIC,,GET,DATA.DEEP,OK,0.97*1d
@SIC,,GET,DATA.DEEP,OK,0.97*1d
$GPGGA,091920.60,0043.4713675,S,00847.5232084,E,4,29,0.5,1.8165,M,0.000,M,1.6,0004*5A
@SIC,,GET,DATA.DEEP,OK,0.96*1c
$GPGGA,091920.80,0043.4714117,S,00847.5232644,E,4,29,0.5,1.8049,M,0.000,M,1.8,0004*5B
@SIC,,GET,DATA.DEEP,OK,0.93*19
@SIC,,GET,DATA.DEEP,OK,0.91*1b
$GPGGA,091921.00,0043.4714587,S,00847.5233216,E,4,29,0.5,1.7951,M,0.000,M,2.0,0004*59
$GPZDA,091921.00,21,04,2026,,*65
@SIC,,GET,DATA.DEEP,OK,0.93*19
$GPGGA,091921.20,0043.4715034,S,00847.5233750,E,4,29,0.5,1.7956,M,0.000,M,2.2,0004*55
@SIC,,GET,DATA.DEEP,OK,0.91*1b
@SIC,,GET,DATA.DEEP,OK,0.94*1e
$GPGGA,091921.40,0043.4715509,S,00847.5234212,E,4,29,0.5,1.8078,M,0.000,M,2.4,0004*50
@SIC,,GET,DATA.DEEP,OK,0.97*1d
$GPGGA,091921.60,0043.4715970,S,00847.5234682,E,4,29,0.5,1.8186,M,0.000,M,0.6,0004*5D
@SIC,,GET,DATA.DEEP,OK,1.00*12
@SIC,,GET,DATA.DEEP,OK,1.00*12
$GPGGA,091921.80,0043.4716554,S,00847.5235176,E,4,29,0.5,1.8036,M,0.000,M,0.8,0004*53
@SIC,,GET,DATA.DEEP,OK,0.99*13
$GPGGA,091922.00,0043.4717287,S,00847.5235689,E,4,29,0.5,1.7814,M,0.000,M,1.0,0004*59
@SIC,,GET,DATA.DEEP,OK,0.97*1d
@SIC,,GET,DATA.DEEP,OK,0.96*1c
$GPGGA,091922.20,0043.4718204,S,00847.5236089,E,4,29,0.5,1.7598,M,0.000,M,1.2,0004*51
$GPHDT,175.3230,T*04
$GPZDA,091922.00,21,04,2026,,*66
@SIC,,GET,DATA.DEEP,OK,0.94*1e
$GPGGA,091922.40,0043.4719077,S,00847.5236330,E,4,29,0.5,1.7480,M,0.000,M,1.4,0004*5F
@SIC,,GET,DATA.DEEP,OK,0.93*19
@SIC,,GET,DATA.DEEP,OK,0.94*1e
$GPGGA,091922.60,0043.4719838,S,00847.5236553,E,4,29,0.5,1.7365,M,0.000,M,1.6,0004*53
@SIC,,GET,DATA.DEEP,OK,1.00*12
$GPGGA,091922.80,0043.4720589,S,00847.5236650,E,4,29,0.5,1.7527,M,0.000,M,1.8,0004*5E
@SIC,,GET,DATA.DEEP,OK,0.99*13
@SIC,,GET,DATA.DEEP,OK,1.00*12
$GPGGA,091923.00,0043.4721397,S,00847.5236600,E,4,29,0.5,1.7804,M,0.000,M,1.0,0004*5E
$GPZDA,091923.00,21,04,2026,,*67
@SIC,,GET,DATA.DEEP,OK,1.00*12
$GPGGA,091923.20,0043.4722293,S,00847.5236343,E,4,29,0.5,1.7929,M,0.000,M,1.2,0004*54
@SIC,,GET,DATA.DEEP,OK,0.97*1d
@SIC,,GET,DATA.DEEP,OK,0.93*19
$GPGGA,091923.40,0043.4723274,S,00847.5236169,E,4,29,0.5,1.7787,M,0.000,M,0.4,0004*5D
@SIC,,GET,DATA.DEEP,OK,0.91*1b
$GPGGA,091923.60,0043.4724339,S,00847.5235989,E,4,29,0.5,1.7717,M,0.000,M,0.6,0004*5E
@SIC,,GET,DATA.DEEP,OK,0.94*1e
@SIC,,GET,DATA.DEEP,OK,0.96*1c
$GPGGA,091923.80,0043.4725494,S,00847.5235763,E,4,29,0.5,1.7730,M,0.000,M,0.8,0004*50
@SIC,,GET,DATA.DEEP,OK,0.96*1c
$GPGGA,091924.00,0043.4726670,S,00847.5235460,E,4,29,0.5,1.7764,M,0.000,M,1.0,0004*5C
$GPZDA,091924.00,21,04,2026,,*60
@SIC,,GET,DATA.DEEP,OK,0.94*1e
@SIC,,GET,DATA.DEEP,OK,0.94*1e
$GPGGA,091924.20,0043.4727846,S,00847.5235046,E,4,29,0.5,1.7670,M,0.000,M,1.2,0004*52
@SIC,,GET,DATA.DEEP,OK,0.90*1a
$GPGGA,091924.40,0043.4729028,S,00847.5234792,E,4,29,0.5,1.7531,M,0.000,M,1.4,0004*55
@SIC,,GET,DATA.DEEP,OK,0.93*19
@SIC,,GET,DATA.DEEP,OK,0.93*19
$GPGGA,091924.60,0043.4730288,S,00847.5234568,E,4,29,0.5,1.7491,M,0.000,M,1.6,0004*59
@SIC,,GET,DATA.DEEP,OK,0.96*1c
$GPGGA,091924.80,0043.4731653,S,00847.5234341,E,4,29,0.5,1.7581,M,0.000,M,1.8,0004*57
@SIC,,GET,DATA.DEEP,OK,0.96*1c
@SIC,,GET,DATA.DEEP,OK,0.94*1e
$GPGGA,091925.00,0043.4733106,S,00847.5234111,E,4,29,0.5,1.7688,M,0.000,M,2.0,0004*5D
$GPZDA,091925.00,21,04,2026,,*61
@SIC,,GET,DATA.DEEP,OK,0.93*19
$GPGGA,091925.20,0043.4734671,S,00847.5234037,E,4,29,0.5,1.7621,M,0.000,M,2.2,0004*5B
@SIC,,GET,DATA.DEEP,OK,0.90*1a
$GPGGA,091925.40,0043.4736282,S,00847.5234168,E,4,29,0.5,1.7539,M,0.000,M,2.4,0004*50
@SIC,,GET,DATA.DEEP,OK,0.90*1a
@SIC,,GET,DATA.DEEP,OK,0.93*19
$GPGGA,091925.60,0043.4737894,S,00847.5234497,E,4,29,0.5,1.7522,M,0.000,M,2.6,0004*53
@SIC,,GET,DATA.DEEP,OK,0.88*13
$GPGGA,091925.80,0043.4739463,S,00847.5234919,E,4,29,0.5,1.7507,M,0.000,M,2.8,0004*55
@SIC,,GET,DATA.DEEP,OK,0.90*1a
@SIC,,GET,DATA.DEEP,OK,0.93*19
$GPGGA,091926.00,0043.4741013,S,00847.5235371,E,4,29,0.5,1.7637,M,0.000,M,3.0,0004*5E
@SIC,,GET,DATA.DEEP,OK,0.97*1d
$GPGGA,091926.20,0043.4742461,S,00847.5235930,E,4,29,0.5,1.7791,M,0.000,M,3.2,0004*5E
$GPHDT,147.4602,T*07
$GPZDA,091926.00,21,04,2026,,*62
@SIC,,GET,DATA.DEEP,OK,0.99*13
@SIC,,GET,DATA.DEEP,OK,0.99*13
$GPGGA,091926.40,0043.4743788,S,00847.5236505,E,4,29,0.5,1.7881,M,0.000,M,3.4,0004*5C
@SIC,,GET,DATA.DEEP,OK,1.00*12
$GPGGA,091926.60,0043.4745043,S,00847.5237235,E,4,29,0.5,1.7944,M,0.000,M,3.6,0004*57
@SIC,,GET,DATA.DEEP,OK,0.99*13
@SIC,,GET,DATA.DEEP,OK,0.97*1d
$GPGGA,091926.80,0043.4746164,S,00847.5238068,E,4,29,0.5,1.7892,M,0.000,M,3.8,0004*5F
@SIC,,GET,DATA.DEEP,OK,0.93*19
$GPGGA,091927.00,0043.4747136,S,00847.5238870,E,4,29,0.5,1.7743,M,0.000,M,4.0,0004*5D
$GPZDA,091927.00,21,04,2026,,*63
@SIC,,GET,DATA.DEEP,OK,0.94*1e
@SIC,,GET,DATA.DEEP,OK,0.93*19
$GPGGA,091927.20,0043.4748048,S,00847.5239686,E,4,29,0.5,1.7718,M,0.000,M,4.2,0004*52
@SIC,,GET,DATA.DEEP,OK,0.93*19
$GPGGA,091927.40,0043.4748849,S,00847.5240525,E,4,29,0.5,1.7761,M,0.000,M,4.4,0004*51
@SIC,,GET,DATA.DEEP,OK,0.97*1d
@SIC,,GET,DATA.DEEP,OK,0.97*1d
$GPGGA,091927.60,0043.4749536,S,00847.5241351,E,4,29,0.5,1.7776,M,0.000,M,4.6,0004*57
@SIC,,GET,DATA.DEEP,OK,1.00*12
$GPGGA,091927.80,0043.4750229,S,00847.5242177,E,4,29,0.5,1.7842,M,0.000,M,4.8,0004*5B
@SIC,,GET,DATA.DEEP,OK,1.02*10
@SIC,,GET,DATA.DEEP,OK,0.97*1d
$GPGGA,091928.00,0043.4750816,S,00847.5243048,E,4,29,0.5,1.7843,M,0.000,M,5.0,0004*5E
$GPZDA,091928.00,21,04,2026,,*6C
@SIC,,GET,DATA.DEEP,OK,0.96*1c
$GPGGA,091928.20,0043.4751358,S,00847.5243815,E,4,29,0.5,1.7754,M,0.000,M,5.2,0004*57
@SIC,,GET,DATA.DEEP,OK,0.99*13
@SIC,,GET,DATA.DEEP,OK,0.99*13
$GPGGA,091928.40,0043.4751883,S,00847.5244441,E,4,29,0.5,1.7601,M,0.000,M,5.4,0004*51
@SIC,,GET,DATA.DEEP,OK,1.03*11
$GPGGA,091928.60,0043.4752350,S,00847.5245111,E,4,29,0.5,1.7620,M,0.000,M,5.6,0004*55
@SIC,,GET,DATA.DEEP,OK,1.02*10
@SIC,,GET,DATA.DEEP,OK,1.00*12
$GPGGA,091928.80,0043.4752788,S,00847.5245903,E,4,29,0.5,1.7613,M,0.000,M,5.8,0004*5F
@SIC,,GET,DATA.DEEP,OK,0.96*1c
$GPGGA,091929.00,0043.4753079,S,00847.5246588,E,4,29,0.5,1.7173,M,0.000,M,6.0,0004*58
$GPZDA,091929.00,21,04,2026,,*6D
@SIC,,GET,DATA.DEEP,OK,0.94*1e
@SIC,,GET,DATA.DEEP,OK,0.97*1d
$GPGGA,091929.20,0043.4753409,S,00847.5247160,E,4,29,0.5,1.7010,M,0.000,M,6.2,0004*5C
@SIC,,GET,DATA.DEEP,OK,1.02*10
$GPGGA,091929.40,0043.4753779,S,00847.5247691,E,4,29,0.5,1.7079,M,0.000,M,0.4,0004*58
@SIC,,GET,DATA.DEEP,OK,1.08*1a
@SIC,,GET,DATA.DEEP,OK,1.06*14
$GPGGA,091929.60,0043.4754147,S,00847.5248223,E,4,29,0.5,1.7685,M,0.000,M,0.6,0004*53
@SIC,,GET,DATA.DEEP,OK,1.03*11
$GPGGA,091929.80,0043.4754493,S,00847.5248807,E,4,29,0.5,1.7724,M,0.000,M,0.8,0004*59
@SIC,,GET,DATA.DEEP,OK,1.00*12
@SIC,,GET,DATA.DEEP,OK,0.99*13
$GPGGA,091930.00,0043.4754816,S,00847.5249297,E,4,29,0.5,1.7209,M,0.000,M,1.0,0004*59
$GPZDA,091930.00,21,04,2026,,*65
@SIC,,GET,DATA.DEEP,OK,0.97*1d
$GPGGA,091930.20,0043.4755235,S,00847.5249964,E,4,29,0.5,1.6774,M,0.000,M,1.2,0004*5A
@SIC,,GET,DATA.DEEP,OK,1.00*12
@SIC,,GET,DATA.DEEP,OK,1.03*11
$GPGGA,091930.40,0043.4755658,S,00847.5250756,E,4,29,0.5,1.6752,M,0.000,M,1.4,0004*56
@SIC,,GET,DATA.DEEP,OK,1.05*17
$GPGGA,091930.60,0043.4756102,S,00847.5251649,E,4,29,0.5,1.6867,M,0.000,M,1.6,0004*5A
@SIC,,GET,DATA.DEEP,OK,1.09*1b
@SIC,,GET,DATA.DEEP,OK,1.12*11
$GPGGA,091930.80,0043.4756582,S,00847.5252601,E,4,29,0.5,1.7066,M,0.000,M,1.8,0004*51
@SIC,,GET,DATA.DEEP,OK,1.09*1b
$GPGGA,091931.00,0043.4756962,S,00847.5253577,E,4,29,0.5,1.7170,M,0.000,M,2.0,0004*54
$GPZDA,091931.00,21,04,2026,,*64
@SIC,,GET,DATA.DEEP,OK,1.12*11
$GPGGA,091931.20,0043.4757214,S,00847.5254592,E,4,29,0.5,1.7159,M,0.000,M,2.2,0004*58
@SIC,,GET,DATA.DEEP,OK,1.09*1b
@SIC,,GET,DATA.DEEP,OK,1.08*1a
$GPGGA,091931.40,0043.4757369,S,00847.5255565,E,4,29,0.5,1.7055,M,0.000,M,2.4,0004*57
@SIC,,GET,DATA.DEEP,OK,1.08*1a
$GPGGA,091931.60,0043.4757540,S,00847.5256560,E,4,29,0.5,1.6945,M,0.000,M,2.6,0004*55
@SIC,,GET,DATA.DEEP,OK,1.05*17
@SIC,,GET,DATA.DEEP,OK,1.03*11
$GPGGA,091931.80,0043.4757717,S,00847.5257586,E,4,29,0.5,1.6841,M,0.000,M,0.8,0004*5B
@SIC,,GET,DATA.DEEP,OK,1.05*17
$GPGGA,091932.00,0043.4757844,S,00847.5258441,E,4,29,0.5,1.6608,M,0.000,M,1.0,0004*56
@SIC,,GET,DATA.DEEP,OK,1.03*11
@SIC,,GET,DATA.DEEP,OK,1.06*14
$GPGGA,091932.20,0043.4757781,S,00847.5259222,E,4,29,0.5,1.6525,M,0.000,M,1.2,0004*5E
$GPHDT,67.3795,T*3C
$GPZDA,091932.00,21,04,2026,,*67
@SIC,,GET,DATA.DEEP,OK,1.08*1a
@SIC,,GET,DATA.DEEP,OK,1.09*1b
@SIC,,GET,DATA.DEEP,OK,1.09*1b
@SIC,,GET,DATA.DEEP,OK,1.11*12
@SIC,,GET,DATA.DEEP,OK,1.05*17
@SIC,,GET,DATA.DEEP,OK,1.05*17
@SIC,,GET,DATA.DEEP,OK,1.02*10
@SIC,,GET,DATA.DEEP,OK,0.97*1d
@SIC,,GET,DATA.DEEP,OK,0.96*1c
@SIC,,GET,DATA.DEEP,OK,0.96*1c
@SIC,,GET,DATA.DEEP,OK,0.96*1c
@SIC,,GET,DATA.DEEP,OK,0.97*1d
@SIC,,GET,DATA.DEEP,OK,0.99*13
$GPGGA,091937.20,0043.4744888,S,00847.5291523,E,4,29,0.5,1.5898,M,0.000,M,6.2,0004*52
$GPHDT,120.7098,T*00
$GPZDA,091936.00,21,04,2026,,*63
@SIC,,GET,DATA.DEEP,OK,0.94*1e
$GPGGA,091937.40,0043.4745284,S,00847.5292731,E,4,29,0.5,1.5823,M,0.000,M,6.4,0004*57
@SIC,,GET,DATA.DEEP,OK,0.99*13
@SIC,,GET,DATA.DEEP,OK,0.99*13
$GPGGA,091937.60,0043.4745801,S,00847.5293904,E,4,29,0.5,1.5809,M,0.000,M,6.6,0004*51
@SIC,,GET,DATA.DEEP,OK,1.00*12
$GPGGA,091937.80,0043.4746460,S,00847.5294994,E,4,29,0.5,1.5907,M,0.000,M,6.8,0004*58
@SIC,,GET,DATA.DEEP,OK,1.03*11
@SIC,,GET,DATA.DEEP,OK,1.00*12
$GPGGA,091938.00,0043.4747153,S,00847.5296044,E,4,29,0.5,1.5938,M,0.000,M,1.0,0004*5E
@SIC,,GET,DATA.DEEP,OK,0.99*13
$GPGGA,091938.20,0043.4747889,S,00847.5296893,E,4,29,0.5,1.6610,M,0.000,M,1.2,0004*54
$GPHDT,139.7104,T*0C
$GPZDA,091938.00,21,04,2026,,*6D
@SIC,,GET,DATA.DEEP,OK,1.00*12
@SIC,,GET,DATA.DEEP,OK,1.05*17
$GPGGA,091938.40,0043.4748688,S,00847.5297753,E,4,29,0.5,1.6798,M,0.000,M,0.4,0004*56
@SIC,,GET,DATA.DEEP,OK,1.03*11
$GPGGA,091938.60,0043.4749580,S,00847.5298614,E,4,29,0.5,1.7322,M,0.000,M,0.6,0004*55
@SIC,,GET,DATA.DEEP,OK,1.02*10
@SIC,,GET,DATA.DEEP,OK,0.97*1d
$GPGGA,091938.80,0043.4750513,S,00847.5299340,E,4,29,0.5,1.7400,M,0.000,M,0.8,0004*55
@SIC,,GET,DATA.DEEP,OK,0.97*1d
$GPGGA,091939.00,0043.4751378,S,00847.5300041,E,4,29,0.5,1.7291,M,0.000,M,1.0,0004*52
$GPZDA,091939.00,21,04,2026,,*6C
@SIC,,GET,DATA.DEEP,OK,0.96*1c
@SIC,,GET,DATA.DEEP,OK,0.93*19
$GPGGA,091939.20,0043.4752121,S,00847.5300700,E,4,29,0.5,1.7158,M,0.000,M,1.2,0004*5B
@SIC,,GET,DATA.DEEP,OK,0.96*1c
$GPGGA,091939.40,0043.4752904,S,00847.5301182,E,4,29,0.5,1.7191,M,0.000,M,1.4,0004*5C
@SIC,,GET,DATA.DEEP,OK,0.97*1d
@SIC,,GET,DATA.DEEP,OK,0.97*1d
$GPGGA,091939.60,0043.4753744,S,00847.5301473,E,4,29,0.5,1.7390,M,0.000,M,1.6,0004*5F
@SIC,,GET,DATA.DEEP,OK,1.00*12
$GPGGA,091939.80,0043.4754534,S,00847.5301719,E,4,29,0.5,1.7536,M,0.000,M,1.8,0004*58
@SIC,,GET,DATA.DEEP,OK,1.02*10
@SIC,,GET,DATA.DEEP,OK,1.02*10
$GPGGA,091940.00,0043.4755281,S,00847.5301972,E,4,29,0.5,1.7613,M,0.000,M,2.0,0004*5A
@SIC,,GET,DATA.DEEP,OK,1.03*11
$GPGGA,091940.20,0043.4756039,S,00847.5302287,E,4,29,0.5,1.7632,M,0.000,M,2.2,0004*59
$GPHDT,168.2919,T*09
$GPZDA,091940.00,21,04,2026,,*62
@SIC,,GET,DATA.DEEP,OK,1.03*11
@SIC,,GET,DATA.DEEP,OK,1.02*10
$GPGGA,091940.40,0043.4756760,S,00847.5302636,E,4,29,0.5,1.7515,M,0.000,M,2.4,0004*5A
@SIC,,GET,DATA.DEEP,OK,0.97*1d
$GPGGA,091940.60,0043.4757504,S,00847.5302825,E,4,29,0.5,1.7403,M,0.000,M,0.6,0004*53
@SIC,,GET,DATA.DEEP,OK,0.96*1c
@SIC,,GET,DATA.DEEP,OK,1.00*12
$GPGGA,091940.80,0043.4758237,S,00847.5302967,E,4,29,0.5,1.7229,M,0.000,M,0.8,0004*52
@SIC,,GET,DATA.DEEP,OK,0.93*19
$GPGGA,091941.00,0043.4758871,S,00847.5303208,E,4,29,0.5,1.7092,M,0.000,M,1.0,0004*5B
$GPZDA,091941.00,21,04,2026,,*63
@SIC,,GET,DATA.DEEP,OK,0.96*1c
@SIC,,GET,DATA.DEEP,OK,0.97*1d
$GPGGA,091941.20,0043.4759443,S,00847.5303475,E,4,29,0.5,1.7194,M,0.000,M,1.2,0004*5C
@SIC,,GET,DATA.DEEP,OK,0.97*1d
$GPGGA,091941.40,0043.4760032,S,00847.5303676,E,4,29,0.5,1.7418,M,0.000,M,1.4,0004*54
@SIC,,GET,DATA.DEEP,OK,0.99*13
$GPGGA,091941.60,0043.4760632,S,00847.5303658,E,4,29,0.5,1.7690,M,0.000,M,1.6,0004*5C
@SIC,,GET,DATA.DEEP,OK,1.00*12
@SIC,,GET,DATA.DEEP,OK,1.00*12
$GPGGA,091941.80,0043.4761148,S,00847.5303558,E,4,29,0.5,1.7921,M,0.000,M,1.8,0004*51
